{
"type": "FeatureCollection",
"crs": { "type": "name", "properties": { "name": "urn:ogc:def:crs:EPSG::900913" } },
                                                                                
"features": [
{ "type": "Feature", "properties": { "SITE_NAME": "Coler Hospital", "SITE_NUMBER": "1", "VOTER_ENTRANCE": "1 Bird S Coler Hospital", "HANDICAP_ENTRANCE": "Parking Lot", "STREET_NUMBER": "900", "STREET_NAME": "Main Street", "STREET_SUFFIX": null, "SITE_STATUS": "A", "CITY": "New York", "ZIP_CODE": "10044", "LOCATION 1 2": 40.769553, "LOCATION 2 1": -73.943471, "BOROUGH": 1 }, "geometry": { "type": "Point", "coordinates": [ -73.943471, 40.769553 ] } },
{ "type": "Feature", "properties": { "SITE_NAME": "PS 751", "SITE_NUMBER": "7", "VOTER_ENTRANCE": "113 East 4 Street", "HANDICAP_ENTRANCE": "113 East 4 Street", "STREET_NUMBER": "113", "STREET_NAME": "East 4 Street", "STREET_SUFFIX": null, "SITE_STATUS": "A", "CITY": "New York", "ZIP_CODE": "10003", "LOCATION 1 2": 40.725725, "LOCATION 2 1": -73.988146, "BOROUGH": 1 }, "geometry": { "type": "Point", "coordinates": [ -73.988146, 40.725725 ] } },
{ "type": "Feature", "properties": { "SITE_NAME": "Bard H.S.E.C.- 97", "SITE_NUMBER": "9", "VOTER_ENTRANCE": "525 East Houston Street", "HANDICAP_ENTRANCE": "Mangin Street", "STREET_NUMBER": "525", "STREET_NAME": "East Houston Street", "STREET_SUFFIX": null, "SITE_STATUS": "A", "CITY": "New York", "ZIP_CODE": "10002", "LOCATION 1 2": 40.718166, "LOCATION 2 1": -73.976124, "BOROUGH": 1 }, "geometry": { "type": "Point", "coordinates": [ -73.976124, 40.718166 ] } },
{ "type": "Feature", "properties": { "SITE_NAME": "Frank McCourt HS", "SITE_NUMBER": "12", "VOTER_ENTRANCE": "W. 85 St (Bet Columbus & Amsterdam Ave)", "HANDICAP_ENTRANCE": "W. 85 St (Bet Columbus & Amsterdam Ave)", "STREET_NUMBER": "151", "STREET_NAME": "West 84 Street", "STREET_SUFFIX": null, "SITE_STATUS": "A", "CITY": "New York", "ZIP_CODE": "10024", "LOCATION 1 2": 40.785840, "LOCATION 2 1": -73.974542, "BOROUGH": 1 }, "geometry": { "type": "Point", "coordinates": [ -73.974542, 40.78584 ] } },
{ "type": "Feature", "properties": { "SITE_NAME": "Westbeth  Housing", "SITE_NUMBER": "13", "VOTER_ENTRANCE": "155 Bank Street", "HANDICAP_ENTRANCE": "155 Bank Street", "STREET_NUMBER": "155", "STREET_NAME": "Bank Street", "STREET_SUFFIX": null, "SITE_STATUS": "A", "CITY": "New York", "ZIP_CODE": "10014", "LOCATION 1 2": 40.736205, "LOCATION 2 1": -74.008769, "BOROUGH": 1 }, "geometry": { "type": "Point", "coordinates": [ -74.008769, 40.736205 ] } },
{ "type": "Feature", "properties": { "SITE_NAME": "JASA Community Ctr", "SITE_NUMBER": "16", "VOTER_ENTRANCE": "200 East 5 Street", "HANDICAP_ENTRANCE": "200 East 5 Street", "STREET_NUMBER": "200", "STREET_NAME": "East 5 Street", "STREET_SUFFIX": null, "SITE_STATUS": "A", "CITY": "New York", "ZIP_CODE": "10003", "LOCATION 1 2": 40.727659, "LOCATION 2 1": -73.991179, "BOROUGH": 1 }, "geometry": { "type": "Point", "coordinates": [ -73.991179, 40.727659 ] } },
{ "type": "Feature", "properties": { "SITE_NAME": "HS Fashion Industry", "SITE_NUMBER": "19", "VOTER_ENTRANCE": "225 West 24 Street", "HANDICAP_ENTRANCE": "225 West 24 Street", "STREET_NUMBER": "225", "STREET_NAME": "West 24 Street", "STREET_SUFFIX": null, "SITE_STATUS": "A", "CITY": "New York", "ZIP_CODE": "10011", "LOCATION 1 2": 40.745133, "LOCATION 2 1": -73.995859, "BOROUGH": 1 }, "geometry": { "type": "Point", "coordinates": [ -73.995859, 40.745133 ] } },
{ "type": "Feature", "properties": { "SITE_NAME": "PS 84", "SITE_NUMBER": "21", "VOTER_ENTRANCE": "32 West  92 Street", "HANDICAP_ENTRANCE": "32 West  92 Street", "STREET_NUMBER": "32", "STREET_NAME": "West 92 Street", "STREET_SUFFIX": null, "SITE_STATUS": "A", "CITY": "New York", "ZIP_CODE": "10025", "LOCATION 1 2": 40.789424, "LOCATION 2 1": -73.967483, "BOROUGH": 1 }, "geometry": { "type": "Point", "coordinates": [ -73.967483, 40.789424 ] } },
{ "type": "Feature", "properties": { "SITE_NAME": "PS 206", "SITE_NUMBER": "25", "VOTER_ENTRANCE": "508 East 120 Street", "HANDICAP_ENTRANCE": "508 East 120 Street", "STREET_NUMBER": "508", "STREET_NAME": "East 120 Street", "STREET_SUFFIX": null, "SITE_STATUS": "A", "CITY": "New York", "ZIP_CODE": "10035", "LOCATION 1 2": 40.797496, "LOCATION 2 1": -73.931119, "BOROUGH": 1 }, "geometry": { "type": "Point", "coordinates": [ -73.931119, 40.797496 ] } },
{ "type": "Feature", "properties": { "SITE_NAME": "PS 52", "SITE_NUMBER": "28", "VOTER_ENTRANCE": "650 Academy Street", "HANDICAP_ENTRANCE": "Broadway", "STREET_NUMBER": "650", "STREET_NAME": "Academy Street", "STREET_SUFFIX": null, "SITE_STATUS": "A", "CITY": "New York", "ZIP_CODE": "10034", "LOCATION 1 2": 40.865993, "LOCATION 2 1": -73.924883, "BOROUGH": 1 }, "geometry": { "type": "Point", "coordinates": [ -73.924883, 40.865993 ] } },
{ "type": "Feature", "properties": { "SITE_NAME": "Washington Sq SE Ap", "SITE_NUMBER": "10007", "VOTER_ENTRANCE": "505 LaGuardia Place", "HANDICAP_ENTRANCE": "505 LaGuardia Place", "STREET_NUMBER": "505", "STREET_NAME": "Laguardia Place", "STREET_SUFFIX": null, "SITE_STATUS": "A", "CITY": "New York", "ZIP_CODE": "10012", "LOCATION 1 2": 40.727542, "LOCATION 2 1": -73.999293, "BOROUGH": 1 }, "geometry": { "type": "Point", "coordinates": [ -73.999293, 40.727542 ] } },
{ "type": "Feature", "properties": { "SITE_NAME": "Bayard Rustin H S", "SITE_NUMBER": "10099", "VOTER_ENTRANCE": "351 West 18 Street", "HANDICAP_ENTRANCE": "351 West 18 Street", "STREET_NUMBER": "351", "STREET_NAME": "West 18 Street", "STREET_SUFFIX": null, "SITE_STATUS": "A", "CITY": "New York", "ZIP_CODE": "10011", "LOCATION 1 2": 40.743257, "LOCATION 2 1": -74.002872, "BOROUGH": 1 }, "geometry": { "type": "Point", "coordinates": [ -74.002872, 40.743257 ] } },
{ "type": "Feature", "properties": { "SITE_NAME": "Lesbian And Gay Center", "SITE_NUMBER": "10119", "VOTER_ENTRANCE": "208 West 13 Street", "HANDICAP_ENTRANCE": "208 West 13 Street", "STREET_NUMBER": "208", "STREET_NAME": "West 13 Street", "STREET_SUFFIX": null, "SITE_STATUS": "A", "CITY": "New York", "ZIP_CODE": "10011", "LOCATION 1 2": 40.737909, "LOCATION 2 1": -74.000491, "BOROUGH": 1 }, "geometry": { "type": "Point", "coordinates": [ -74.000491, 40.737909 ] } },
{ "type": "Feature", "properties": { "SITE_NAME": "Prospect Tower", "SITE_NUMBER": "10131", "VOTER_ENTRANCE": "45 Tudor City Place", "HANDICAP_ENTRANCE": "45 Tudor City Place", "STREET_NUMBER": "45", "STREET_NAME": "Tudor City Place", "STREET_SUFFIX": null, "SITE_STATUS": "A", "CITY": "New York", "ZIP_CODE": "10017", "LOCATION 1 2": 40.749073, "LOCATION 2 1": -73.970341, "BOROUGH": 1 }, "geometry": { "type": "Point", "coordinates": [ -73.970341, 40.749073 ] } },
{ "type": "Feature", "properties": { "SITE_NAME": "Sirovich Senior Center", "SITE_NUMBER": "10139", "VOTER_ENTRANCE": "331 East 12 Street", "HANDICAP_ENTRANCE": "331 East 12 Street", "STREET_NUMBER": "331", "STREET_NAME": "East 12 Street", "STREET_SUFFIX": null, "SITE_STATUS": "A", "CITY": "New York", "ZIP_CODE": "10003", "LOCATION 1 2": 40.730758, "LOCATION 2 1": -73.985103, "BOROUGH": 1 }, "geometry": { "type": "Point", "coordinates": [ -73.985103, 40.730758 ] } },
{ "type": "Feature", "properties": { "SITE_NAME": "Compos Community Ctr", "SITE_NUMBER": "10142", "VOTER_ENTRANCE": "611 East 13 Street", "HANDICAP_ENTRANCE": "611 East 13 Street", "STREET_NUMBER": "611", "STREET_NAME": "East 13 Street", "STREET_SUFFIX": null, "SITE_STATUS": "A", "CITY": "New York", "ZIP_CODE": "10009", "LOCATION 1 2": 40.728725, "LOCATION 2 1": -73.978294, "BOROUGH": 1 }, "geometry": { "type": "Point", "coordinates": [ -73.978294, 40.728725 ] } },
{ "type": "Feature", "properties": { "SITE_NAME": "UTACPT", "SITE_NUMBER": "10147", "VOTER_ENTRANCE": "125 West 109 Street", "HANDICAP_ENTRANCE": "125 West 109 Street", "STREET_NUMBER": "125", "STREET_NAME": "West 109 Street", "STREET_SUFFIX": null, "SITE_STATUS": "A", "CITY": "New York", "ZIP_CODE": "10025", "LOCATION 1 2": 40.801544, "LOCATION 2 1": -73.962159, "BOROUGH": 1 }, "geometry": { "type": "Point", "coordinates": [ -73.962159, 40.801544 ] } },
{ "type": "Feature", "properties": { "SITE_NAME": "Pelham Fritz Rec Ctr", "SITE_NUMBER": "10148", "VOTER_ENTRANCE": "18 Mt Morris Park West", "HANDICAP_ENTRANCE": "18 Mt Morris Park West", "STREET_NUMBER": "18", "STREET_NAME": "Mt Morris Park West", "STREET_SUFFIX": null, "SITE_STATUS": "A", "CITY": "New York", "ZIP_CODE": "10027", "LOCATION 1 2": 40.805102, "LOCATION 2 1": -73.945132, "BOROUGH": 1 }, "geometry": { "type": "Point", "coordinates": [ -73.945132, 40.805102 ] } },
{ "type": "Feature", "properties": { "SITE_NAME": "HS of Art & Design", "SITE_NUMBER": "10176", "VOTER_ENTRANCE": "249 East 56 Street (Glass Doors Closer to 2nd Avenue)", "HANDICAP_ENTRANCE": "249 East 56 Street (Glass Doors Closer to 2nd Avenue)", "STREET_NUMBER": "249", "STREET_NAME": "East 56 Street", "STREET_SUFFIX": null, "SITE_STATUS": "A", "CITY": "New York", "ZIP_CODE": "10022", "LOCATION 1 2": 40.759091, "LOCATION 2 1": -73.965549, "BOROUGH": 1 }, "geometry": { "type": "Point", "coordinates": [ -73.965549, 40.759091 ] } },
{ "type": "Feature", "properties": { "SITE_NAME": "Windsor Tower", "SITE_NUMBER": "10205", "VOTER_ENTRANCE": "5 Tudor City Place", "HANDICAP_ENTRANCE": "East 40th Street", "STREET_NUMBER": "5", "STREET_NAME": "Tudor City Place", "STREET_SUFFIX": null, "SITE_STATUS": "A", "CITY": "New York", "ZIP_CODE": "10017", "LOCATION 1 2": 40.748068, "LOCATION 2 1": -73.971083, "BOROUGH": 1 }, "geometry": { "type": "Point", "coordinates": [ -73.971083, 40.748068 ] } },
{ "type": "Feature", "properties": { "SITE_NAME": "PS 234 (Independence)", "SITE_NUMBER": "10222", "VOTER_ENTRANCE": "292 Greenwich Street", "HANDICAP_ENTRANCE": "292 Greenwich Street", "STREET_NUMBER": "292", "STREET_NAME": "Greenwich Street", "STREET_SUFFIX": null, "SITE_STATUS": "A", "CITY": "New York", "ZIP_CODE": "10007", "LOCATION 1 2": 40.716220, "LOCATION 2 1": -74.011057, "BOROUGH": 1 }, "geometry": { "type": "Point", "coordinates": [ -74.011057, 40.71622 ] } },
{ "type": "Feature", "properties": { "SITE_NAME": "Peter Cooper Village", "SITE_NUMBER": "10241", "VOTER_ENTRANCE": "360 1 Avenue", "HANDICAP_ENTRANCE": "360 1 Avenue", "STREET_NUMBER": "360", "STREET_NAME": "1 Avenue", "STREET_SUFFIX": null, "SITE_STATUS": "A", "CITY": "New York", "ZIP_CODE": "10010", "LOCATION 1 2": 40.735773, "LOCATION 2 1": -73.979001, "BOROUGH": 1 }, "geometry": { "type": "Point", "coordinates": [ -73.979001, 40.735773 ] } },
{ "type": "Feature", "properties": { "SITE_NAME": "YM & YWHA (Nagle Ave)", "SITE_NUMBER": "10251", "VOTER_ENTRANCE": "54 Nagle Avenue", "HANDICAP_ENTRANCE": "54 Nagle Avenue", "STREET_NUMBER": "54", "STREET_NAME": "Nagle Avenue", "STREET_SUFFIX": null, "SITE_STATUS": "A", "CITY": "New York", "ZIP_CODE": "10040", "LOCATION 1 2": 40.860011, "LOCATION 2 1": -73.929243, "BOROUGH": 1 }, "geometry": { "type": "Point", "coordinates": [ -73.929243, 40.860011 ] } },
{ "type": "Feature", "properties": { "SITE_NAME": "Hunter College", "SITE_NUMBER": "10261", "VOTER_ENTRANCE": "128 East 68 Street", "HANDICAP_ENTRANCE": "East 68th Street", "STREET_NUMBER": "128", "STREET_NAME": "East 68 Street", "STREET_SUFFIX": null, "SITE_STATUS": "A", "CITY": "New York", "ZIP_CODE": "10065", "LOCATION 1 2": 40.768100, "LOCATION 2 1": -73.964849, "BOROUGH": 1 }, "geometry": { "type": "Point", "coordinates": [ -73.964849, 40.7681 ] } },
{ "type": "Feature", "properties": { "SITE_NAME": "IS 218", "SITE_NUMBER": "10271", "VOTER_ENTRANCE": "4600 Broadway", "HANDICAP_ENTRANCE": "4600 Broadway", "STREET_NUMBER": "4600", "STREET_NAME": "Broadway", "STREET_SUFFIX": null, "SITE_STATUS": "A", "CITY": "New York", "ZIP_CODE": "10040", "LOCATION 1 2": 40.860697, "LOCATION 2 1": -73.930633, "BOROUGH": 1 }, "geometry": { "type": "Point", "coordinates": [ -73.930633, 40.860697 ] } },
{ "type": "Feature", "properties": { "SITE_NAME": "Inwood Towers", "SITE_NUMBER": "10275", "VOTER_ENTRANCE": "11 Fort George Hill", "HANDICAP_ENTRANCE": "11 Fort George Hill", "STREET_NUMBER": "11", "STREET_NAME": "Fort George Hill", "STREET_SUFFIX": null, "SITE_STATUS": "A", "CITY": "New York", "ZIP_CODE": "10040", "LOCATION 1 2": 40.857340, "LOCATION 2 1": -73.928180, "BOROUGH": 1 }, "geometry": { "type": "Point", "coordinates": [ -73.92818, 40.85734 ] } },
{ "type": "Feature", "properties": { "SITE_NAME": "Local 802", "SITE_NUMBER": "10279", "VOTER_ENTRANCE": "322 West 48 Street", "HANDICAP_ENTRANCE": "322 West 48 Street", "STREET_NUMBER": "322", "STREET_NAME": "West 48 Street", "STREET_SUFFIX": null, "SITE_STATUS": "A", "CITY": "New York", "ZIP_CODE": "10036", "LOCATION 1 2": 40.761410, "LOCATION 2 1": -73.988099, "BOROUGH": 1 }, "geometry": { "type": "Point", "coordinates": [ -73.988099, 40.76141 ] } },
{ "type": "Feature", "properties": { "SITE_NAME": "Seward Park I", "SITE_NUMBER": "10297", "VOTER_ENTRANCE": "266 East Broadway", "HANDICAP_ENTRANCE": "266 East Broadway", "STREET_NUMBER": "266", "STREET_NAME": "East Broadway", "STREET_SUFFIX": null, "SITE_STATUS": "A", "CITY": "New York", "ZIP_CODE": "10002", "LOCATION 1 2": 40.714541, "LOCATION 2 1": -73.985166, "BOROUGH": 1 }, "geometry": { "type": "Point", "coordinates": [ -73.985166, 40.714541 ] } },
{ "type": "Feature", "properties": { "SITE_NAME": "Seward Park II", "SITE_NUMBER": "10306", "VOTER_ENTRANCE": "210 East Broadway", "HANDICAP_ENTRANCE": "210 East Broadway", "STREET_NUMBER": "210", "STREET_NAME": "East Broadway", "STREET_SUFFIX": null, "SITE_STATUS": "A", "CITY": "New York", "ZIP_CODE": "10002", "LOCATION 1 2": 40.714322, "LOCATION 2 1": -73.987745, "BOROUGH": 1 }, "geometry": { "type": "Point", "coordinates": [ -73.987745, 40.714322 ] } },
{ "type": "Feature", "properties": { "SITE_NAME": "Seward Park III", "SITE_NUMBER": "10307", "VOTER_ENTRANCE": "415 Grand Street", "HANDICAP_ENTRANCE": "415 Grand Street", "STREET_NUMBER": "415", "STREET_NAME": "Grand Street", "STREET_SUFFIX": null, "SITE_STATUS": "A", "CITY": "New York", "ZIP_CODE": "10002", "LOCATION 1 2": 40.715782, "LOCATION 2 1": -73.986396, "BOROUGH": 1 }, "geometry": { "type": "Point", "coordinates": [ -73.986396, 40.715782 ] } },
{ "type": "Feature", "properties": { "SITE_NAME": "East River Housing I", "SITE_NUMBER": "10308", "VOTER_ENTRANCE": "570 GRAND ST", "HANDICAP_ENTRANCE": "570 GRAND ST", "STREET_NUMBER": "570", "STREET_NAME": "Grand Street", "STREET_SUFFIX": null, "SITE_STATUS": "A", "CITY": "New York", "ZIP_CODE": "10002", "LOCATION 1 2": 40.713783, "LOCATION 2 1": -73.979105, "BOROUGH": 1 }, "geometry": { "type": "Point", "coordinates": [ -73.979105, 40.713783 ] } },
{ "type": "Feature", "properties": { "SITE_NAME": "East River Housing II", "SITE_NUMBER": "10309", "VOTER_ENTRANCE": "575 GRAND ST", "HANDICAP_ENTRANCE": "575 GRAND ST", "STREET_NUMBER": "575", "STREET_NAME": "Grand Street", "STREET_SUFFIX": null, "SITE_STATUS": "A", "CITY": "New York", "ZIP_CODE": "10002", "LOCATION 1 2": 40.713655, "LOCATION 2 1": -73.979173, "BOROUGH": 1 }, "geometry": { "type": "Point", "coordinates": [ -73.979173, 40.713655 ] } },
{ "type": "Feature", "properties": { "SITE_NAME": "2nd Canaan Baptist", "SITE_NUMBER": "10314", "VOTER_ENTRANCE": "10 Lenox Avenue", "HANDICAP_ENTRANCE": "10 Lenox Avenue", "STREET_NUMBER": "10", "STREET_NAME": "Lenox Avenue", "STREET_SUFFIX": null, "SITE_STATUS": "A", "CITY": "New York", "ZIP_CODE": "10026", "LOCATION 1 2": 40.798520, "LOCATION 2 1": -73.952054, "BOROUGH": 1 }, "geometry": { "type": "Point", "coordinates": [ -73.952054, 40.79852 ] } },
{ "type": "Feature", "properties": { "SITE_NAME": "Promenade", "SITE_NUMBER": "10363", "VOTER_ENTRANCE": "150 West 225 Street", "HANDICAP_ENTRANCE": "150 West 225 Street", "STREET_NUMBER": "150", "STREET_NAME": "West 225 Street", "STREET_SUFFIX": null, "SITE_STATUS": "A", "CITY": "New York", "ZIP_CODE": "10463", "LOCATION 1 2": 40.875010, "LOCATION 2 1": -73.912405, "BOROUGH": 1 }, "geometry": { "type": "Point", "coordinates": [ -73.912405, 40.87501 ] } },
{ "type": "Feature", "properties": { "SITE_NAME": "Times Square Hotel", "SITE_NUMBER": "10383", "VOTER_ENTRANCE": "255 West 43 Street", "HANDICAP_ENTRANCE": "255 West 43 Street", "STREET_NUMBER": "255", "STREET_NAME": "West 43 Street", "STREET_SUFFIX": null, "SITE_STATUS": "A", "CITY": "New York", "ZIP_CODE": "10036", "LOCATION 1 2": 40.757508, "LOCATION 2 1": -73.988170, "BOROUGH": 1 }, "geometry": { "type": "Point", "coordinates": [ -73.98817, 40.757508 ] } },
{ "type": "Feature", "properties": { "SITE_NAME": "Carver Houses", "SITE_NUMBER": "10385", "VOTER_ENTRANCE": "1481 Madison Avenue", "HANDICAP_ENTRANCE": "1481 Madison Avenue", "STREET_NUMBER": "1481", "STREET_NAME": "Madison Avenue", "STREET_SUFFIX": null, "SITE_STATUS": "A", "CITY": "New York", "ZIP_CODE": "10029", "LOCATION 1 2": 40.790797, "LOCATION 2 1": -73.951454, "BOROUGH": 1 }, "geometry": { "type": "Point", "coordinates": [ -73.951454, 40.790797 ] } },
{ "type": "Feature", "properties": { "SITE_NAME": "One Lincoln Plaza", "SITE_NUMBER": "10392", "VOTER_ENTRANCE": "20 West 64 Street (ENTER FROM 63rd STREET)", "HANDICAP_ENTRANCE": "20 West 64 Street (ENTER FROM 63rd STREET)", "STREET_NUMBER": "20", "STREET_NAME": "West 64 Street", "STREET_SUFFIX": null, "SITE_STATUS": "A", "CITY": "New York", "ZIP_CODE": "10023", "LOCATION 1 2": 40.771345, "LOCATION 2 1": -73.980161, "BOROUGH": 1 }, "geometry": { "type": "Point", "coordinates": [ -73.980161, 40.771345 ] } },
{ "type": "Feature", "properties": { "SITE_NAME": "Rutgers House", "SITE_NUMBER": "10393", "VOTER_ENTRANCE": "200 Madison Street", "HANDICAP_ENTRANCE": "200 Madison Street", "STREET_NUMBER": "200", "STREET_NAME": "Madison Street", "STREET_SUFFIX": null, "SITE_STATUS": "A", "CITY": "New York", "ZIP_CODE": "10002", "LOCATION 1 2": 40.712459, "LOCATION 2 1": -73.990354, "BOROUGH": 1 }, "geometry": { "type": "Point", "coordinates": [ -73.990354, 40.712459 ] } },
{ "type": "Feature", "properties": { "SITE_NAME": "Lenox Hill Senior Center", "SITE_NUMBER": "10401", "VOTER_ENTRANCE": "343 East 70 Street", "HANDICAP_ENTRANCE": "343 East 70 Street", "STREET_NUMBER": "343", "STREET_NAME": "East 70 Street", "STREET_SUFFIX": null, "SITE_STATUS": "A", "CITY": "New York", "ZIP_CODE": "10021", "LOCATION 1 2": 40.766842, "LOCATION 2 1": -73.957319, "BOROUGH": 1 }, "geometry": { "type": "Point", "coordinates": [ -73.957319, 40.766842 ] } },
{ "type": "Feature", "properties": { "SITE_NAME": "Clinton Community Center", "SITE_NUMBER": "10404", "VOTER_ENTRANCE": "456 West 37 Street", "HANDICAP_ENTRANCE": "456 West 37 Street", "STREET_NUMBER": "456", "STREET_NAME": "West 37 Street", "STREET_SUFFIX": null, "SITE_STATUS": "A", "CITY": "New York", "ZIP_CODE": "10018", "LOCATION 1 2": 40.756151, "LOCATION 2 1": -73.997141, "BOROUGH": 1 }, "geometry": { "type": "Point", "coordinates": [ -73.997141, 40.756151 ] } },
{ "type": "Feature", "properties": { "SITE_NAME": "Wadleigh HS", "SITE_NUMBER": "10405", "VOTER_ENTRANCE": "215 West 114 Street", "HANDICAP_ENTRANCE": "215 West 114 Street", "STREET_NUMBER": "215", "STREET_NAME": "West 114 Street", "STREET_SUFFIX": null, "SITE_STATUS": "A", "CITY": "New York", "ZIP_CODE": "10026", "LOCATION 1 2": 40.802205, "LOCATION 2 1": -73.953977, "BOROUGH": 1 }, "geometry": { "type": "Point", "coordinates": [ -73.953977, 40.802205 ] } },
{ "type": "Feature", "properties": { "SITE_NAME": "Henry Brooks Senior House", "SITE_NUMBER": "10407", "VOTER_ENTRANCE": "304 West 154 Street", "HANDICAP_ENTRANCE": "Left Of Main Entrance", "STREET_NUMBER": "304", "STREET_NAME": "West 154 Street", "STREET_SUFFIX": null, "SITE_STATUS": "A", "CITY": "New York", "ZIP_CODE": "10039", "LOCATION 1 2": 40.828495, "LOCATION 2 1": -73.937968, "BOROUGH": 1 }, "geometry": { "type": "Point", "coordinates": [ -73.937968, 40.828495 ] } },
{ "type": "Feature", "properties": { "SITE_NAME": "Theater For New City", "SITE_NUMBER": "10410", "VOTER_ENTRANCE": "155 1 Avenue", "HANDICAP_ENTRANCE": "Right Of Main Entrance", "STREET_NUMBER": "155", "STREET_NAME": "1 Avenue", "STREET_SUFFIX": null, "SITE_STATUS": "A", "CITY": "New York", "ZIP_CODE": "10003", "LOCATION 1 2": 40.728549, "LOCATION 2 1": -73.984720, "BOROUGH": 1 }, "geometry": { "type": "Point", "coordinates": [ -73.98472, 40.728549 ] } },
{ "type": "Feature", "properties": { "SITE_NAME": "Coliseum Park Apts", "SITE_NUMBER": "10425", "VOTER_ENTRANCE": "345 West 58 Street", "HANDICAP_ENTRANCE": "345 West 58 Street", "STREET_NUMBER": "345", "STREET_NAME": "West 58 Street", "STREET_SUFFIX": null, "SITE_STATUS": "A", "CITY": "New York", "ZIP_CODE": "10019", "LOCATION 1 2": 40.768021, "LOCATION 2 1": -73.983651, "BOROUGH": 1 }, "geometry": { "type": "Point", "coordinates": [ -73.983651, 40.768021 ] } },
{ "type": "Feature", "properties": { "SITE_NAME": "National Council of Jewish Women New York Section", "SITE_NUMBER": "10428", "VOTER_ENTRANCE": "241 West 72 Street", "HANDICAP_ENTRANCE": "241 West 72 Street", "STREET_NUMBER": "241", "STREET_NAME": "West 72 Street", "STREET_SUFFIX": null, "SITE_STATUS": "A", "CITY": "New York", "ZIP_CODE": "10023", "LOCATION 1 2": 40.779267, "LOCATION 2 1": -73.983014, "BOROUGH": 1 }, "geometry": { "type": "Point", "coordinates": [ -73.983014, 40.779267 ] } },
{ "type": "Feature", "properties": { "SITE_NAME": "Church of St Paul & St Andrew", "SITE_NUMBER": "10432", "VOTER_ENTRANCE": "263 WEST   86 STREET", "HANDICAP_ENTRANCE": "263 WEST   86 STREET", "STREET_NUMBER": "263", "STREET_NAME": "West 86 Street", "STREET_SUFFIX": null, "SITE_STATUS": "A", "CITY": "New York", "ZIP_CODE": "10024", "LOCATION 1 2": 40.788569, "LOCATION 2 1": -73.976919, "BOROUGH": 1 }, "geometry": { "type": "Point", "coordinates": [ -73.976919, 40.788569 ] } },
{ "type": "Feature", "properties": { "SITE_NAME": "Max Meltzer Community Center", "SITE_NUMBER": "10433", "VOTER_ENTRANCE": "94 East 1 Street", "HANDICAP_ENTRANCE": "94 East 1 Street", "STREET_NUMBER": "94", "STREET_NAME": "East 1 Street", "STREET_SUFFIX": null, "SITE_STATUS": "A", "CITY": "New York", "ZIP_CODE": "10009", "LOCATION 1 2": 40.723161, "LOCATION 2 1": -73.987999, "BOROUGH": 1 }, "geometry": { "type": "Point", "coordinates": [ -73.987999, 40.723161 ] } },
{ "type": "Feature", "properties": { "SITE_NAME": "J K Onassis HS", "SITE_NUMBER": "10434", "VOTER_ENTRANCE": "120 West 46 Street", "HANDICAP_ENTRANCE": "Left Of Main Entrance", "STREET_NUMBER": "120", "STREET_NAME": "West 46 Street", "STREET_SUFFIX": null, "SITE_STATUS": "A", "CITY": "New York", "ZIP_CODE": "10036", "LOCATION 1 2": 40.757717, "LOCATION 2 1": -73.983213, "BOROUGH": 1 }, "geometry": { "type": "Point", "coordinates": [ -73.983213, 40.757717 ] } },
{ "type": "Feature", "properties": { "SITE_NAME": "Marseilles LLC", "SITE_NUMBER": "10438", "VOTER_ENTRANCE": "230 West 103 Street", "HANDICAP_ENTRANCE": "230 West 103 Street", "STREET_NUMBER": "230", "STREET_NAME": "West 103 Street", "STREET_SUFFIX": null, "SITE_STATUS": "A", "CITY": "New York", "ZIP_CODE": "10025", "LOCATION 1 2": 40.799155, "LOCATION 2 1": -73.968840, "BOROUGH": 1 }, "geometry": { "type": "Point", "coordinates": [ -73.96884, 40.799155 ] } },
{ "type": "Feature", "properties": { "SITE_NAME": "Oberia Dempsey Ctr", "SITE_NUMBER": "10440", "VOTER_ENTRANCE": "127 West 127 Street", "HANDICAP_ENTRANCE": "West 128th Street Between Lenox & 7th Avenues", "STREET_NUMBER": "127", "STREET_NAME": "West 127 Street", "STREET_SUFFIX": null, "SITE_STATUS": "A", "CITY": "New York", "ZIP_CODE": "10027", "LOCATION 1 2": 40.809480, "LOCATION 2 1": -73.945313, "BOROUGH": 1 }, "geometry": { "type": "Point", "coordinates": [ -73.945313, 40.80948 ] } },
{ "type": "Feature", "properties": { "SITE_NAME": "Northern Man. Nur Hm", "SITE_NUMBER": "10445", "VOTER_ENTRANCE": "116 East 125 Street", "HANDICAP_ENTRANCE": "116 East 125 Street", "STREET_NUMBER": "116", "STREET_NAME": "East 125 Street", "STREET_SUFFIX": null, "SITE_STATUS": "A", "CITY": "New York", "ZIP_CODE": "10035", "LOCATION 1 2": 40.804683, "LOCATION 2 1": -73.938333, "BOROUGH": 1 }, "geometry": { "type": "Point", "coordinates": [ -73.938333, 40.804683 ] } },
{ "type": "Feature", "properties": { "SITE_NAME": "Baruch College Campus H.S", "SITE_NUMBER": "10463", "VOTER_ENTRANCE": "55 East 25 Street", "HANDICAP_ENTRANCE": "55 East 25 Street", "STREET_NUMBER": "55", "STREET_NAME": "East 25 Street", "STREET_SUFFIX": null, "SITE_STATUS": "A", "CITY": "New York", "ZIP_CODE": "10010", "LOCATION 1 2": 40.741855, "LOCATION 2 1": -73.986156, "BOROUGH": 1 }, "geometry": { "type": "Point", "coordinates": [ -73.986156, 40.741855 ] } },
{ "type": "Feature", "properties": { "SITE_NAME": "Fashion Institute of Technology", "SITE_NUMBER": "10465", "VOTER_ENTRANCE": "298 7 Avenue", "HANDICAP_ENTRANCE": "7 Ave & W 27 St (SW Corner)", "STREET_NUMBER": "298", "STREET_NAME": "7 Avenue", "STREET_SUFFIX": null, "SITE_STATUS": "A", "CITY": "New York", "ZIP_CODE": "10001", "LOCATION 1 2": 40.746582, "LOCATION 2 1": -73.993942, "BOROUGH": 1 }, "geometry": { "type": "Point", "coordinates": [ -73.993942, 40.746582 ] } },
{ "type": "Feature", "properties": { "SITE_NAME": "HS Environment Studies", "SITE_NUMBER": "10466", "VOTER_ENTRANCE": "444 West 56 Street", "HANDICAP_ENTRANCE": "Ramp Near Main Entrance", "STREET_NUMBER": "444", "STREET_NAME": "West 56 Street", "STREET_SUFFIX": null, "SITE_STATUS": "A", "CITY": "New York", "ZIP_CODE": "10019", "LOCATION 1 2": 40.767722, "LOCATION 2 1": -73.987538, "BOROUGH": 1 }, "geometry": { "type": "Point", "coordinates": [ -73.987538, 40.767722 ] } },
{ "type": "Feature", "properties": { "SITE_NAME": "Park East Synagogue", "SITE_NUMBER": "10468", "VOTER_ENTRANCE": "163 East 67 Street", "HANDICAP_ENTRANCE": "163 East 67 Street", "STREET_NUMBER": "163", "STREET_NAME": "East 67 Street", "STREET_SUFFIX": null, "SITE_STATUS": "A", "CITY": "New York", "ZIP_CODE": "10065", "LOCATION 1 2": 40.767238, "LOCATION 2 1": -73.962821, "BOROUGH": 1 }, "geometry": { "type": "Point", "coordinates": [ -73.962821, 40.767238 ] } },
{ "type": "Feature", "properties": { "SITE_NAME": "St Anthony's Church", "SITE_NUMBER": "10516", "VOTER_ENTRANCE": "154 Sullivan Street", "HANDICAP_ENTRANCE": "Houston Street", "STREET_NUMBER": "155", "STREET_NAME": "Sullivan Street", "STREET_SUFFIX": null, "SITE_STATUS": "A", "CITY": "New York", "ZIP_CODE": "10012", "LOCATION 1 2": 40.727338, "LOCATION 2 1": -74.001532, "BOROUGH": 1 }, "geometry": { "type": "Point", "coordinates": [ -74.001532, 40.727338 ] } },
{ "type": "Feature", "properties": { "SITE_NAME": "PS 217", "SITE_NUMBER": "10517", "VOTER_ENTRANCE": "645 Main Street", "HANDICAP_ENTRANCE": "645 Main Street", "STREET_NUMBER": "645", "STREET_NAME": "Main Street", "STREET_SUFFIX": null, "SITE_STATUS": "A", "CITY": "New York", "ZIP_CODE": "10044", "LOCATION 1 2": 40.763837, "LOCATION 2 1": -73.948080, "BOROUGH": 1 }, "geometry": { "type": "Point", "coordinates": [ -73.94808, 40.763837 ] } },
{ "type": "Feature", "properties": { "SITE_NAME": "Dewitt Clinton Ctr", "SITE_NUMBER": "10518", "VOTER_ENTRANCE": "120 East 110 Street", "HANDICAP_ENTRANCE": "East 110th Street", "STREET_NUMBER": "120", "STREET_NAME": "East 110 Street", "STREET_SUFFIX": null, "SITE_STATUS": "A", "CITY": "New York", "ZIP_CODE": "10029", "LOCATION 1 2": 40.795097, "LOCATION 2 1": -73.945316, "BOROUGH": 1 }, "geometry": { "type": "Point", "coordinates": [ -73.945316, 40.795097 ] } },
{ "type": "Feature", "properties": { "SITE_NAME": "Gen Grant Houses II", "SITE_NUMBER": "10522", "VOTER_ENTRANCE": "1295 Amsterdam Avenue", "HANDICAP_ENTRANCE": "1295 Amsterdam Avenue", "STREET_NUMBER": "1295", "STREET_NAME": "Amsterdam Avenue", "STREET_SUFFIX": null, "SITE_STATUS": "A", "CITY": "New York", "ZIP_CODE": "10027", "LOCATION 1 2": 40.811768, "LOCATION 2 1": -73.957333, "BOROUGH": 1 }, "geometry": { "type": "Point", "coordinates": [ -73.957333, 40.811768 ] } },
{ "type": "Feature", "properties": { "SITE_NAME": "Yeshiva University-Cardozo School of Law", "SITE_NUMBER": "10524", "VOTER_ENTRANCE": "55 5 Avenue", "HANDICAP_ENTRANCE": "55 5 Avenue", "STREET_NUMBER": "55", "STREET_NAME": "5 Avenue", "STREET_SUFFIX": null, "SITE_STATUS": "A", "CITY": "New York", "ZIP_CODE": "10003", "LOCATION 1 2": 40.734831, "LOCATION 2 1": -73.994364, "BOROUGH": 1 }, "geometry": { "type": "Point", "coordinates": [ -73.994364, 40.734831 ] } },
{ "type": "Feature", "properties": { "SITE_NAME": "NYU Carlyle Court", "SITE_NUMBER": "10526", "VOTER_ENTRANCE": "16th Street Bet. Union Sq West & Sth Avenue", "HANDICAP_ENTRANCE": "16th Street Bet. Union Sq West & Sth Avenue", "STREET_NUMBER": "25", "STREET_NAME": "Union Square West", "STREET_SUFFIX": null, "SITE_STATUS": "A", "CITY": "New York", "ZIP_CODE": "10003", "LOCATION 1 2": 40.736285, "LOCATION 2 1": -73.991001, "BOROUGH": 1 }, "geometry": { "type": "Point", "coordinates": [ -73.991001, 40.736285 ] } },
{ "type": "Feature", "properties": { "SITE_NAME": "Andrew Heiskell Library", "SITE_NUMBER": "10527", "VOTER_ENTRANCE": "40 West 20 Street", "HANDICAP_ENTRANCE": "40 West 20 Street", "STREET_NUMBER": "40", "STREET_NAME": "West 20 Street", "STREET_SUFFIX": null, "SITE_STATUS": "A", "CITY": "New York", "ZIP_CODE": "10011", "LOCATION 1 2": 40.740156, "LOCATION 2 1": -73.992277, "BOROUGH": 1 }, "geometry": { "type": "Point", "coordinates": [ -73.992277, 40.740156 ] } },
{ "type": "Feature", "properties": { "SITE_NAME": "Liberty High School", "SITE_NUMBER": "10537", "VOTER_ENTRANCE": "250 West 18 Street", "HANDICAP_ENTRANCE": "250 West 18 Street", "STREET_NUMBER": "250", "STREET_NAME": "West 18 Street", "STREET_SUFFIX": null, "SITE_STATUS": "A", "CITY": "New York", "ZIP_CODE": "10011", "LOCATION 1 2": 40.741605, "LOCATION 2 1": -73.999350, "BOROUGH": 1 }, "geometry": { "type": "Point", "coordinates": [ -73.99935, 40.741605 ] } },
{ "type": "Feature", "properties": { "SITE_NAME": "NYU Wash Square Village 2", "SITE_NUMBER": "10547", "VOTER_ENTRANCE": "2 Washington Square Village", "HANDICAP_ENTRANCE": "2 Washington Square Village", "STREET_NUMBER": "2", "STREET_NAME": "Washington Square Village", "STREET_SUFFIX": null, "SITE_STATUS": "A", "CITY": "New York", "ZIP_CODE": "10012", "LOCATION 1 2": 40.728390, "LOCATION 2 1": -73.996362, "BOROUGH": 1 }, "geometry": { "type": "Point", "coordinates": [ -73.996362, 40.72839 ] } },
{ "type": "Feature", "properties": { "SITE_NAME": "NYU Wash Square Village 3", "SITE_NUMBER": "10548", "VOTER_ENTRANCE": "3 Washington Square Village", "HANDICAP_ENTRANCE": "3 Washington Square Village", "STREET_NUMBER": "3", "STREET_NAME": "Washington Square Village", "STREET_SUFFIX": null, "SITE_STATUS": "A", "CITY": "New York", "ZIP_CODE": "10012", "LOCATION 1 2": 40.727945, "LOCATION 2 1": -73.998430, "BOROUGH": 1 }, "geometry": { "type": "Point", "coordinates": [ -73.99843, 40.727945 ] } },
{ "type": "Feature", "properties": { "SITE_NAME": "Renwick Gardens", "SITE_NUMBER": "10553", "VOTER_ENTRANCE": "332 East 29 Street", "HANDICAP_ENTRANCE": "332 East 29 Street", "STREET_NUMBER": "332", "STREET_NAME": "East 29 Street", "STREET_SUFFIX": null, "SITE_STATUS": "A", "CITY": "New York", "ZIP_CODE": "10016", "LOCATION 1 2": 40.741239, "LOCATION 2 1": -73.977406, "BOROUGH": 1 }, "geometry": { "type": "Point", "coordinates": [ -73.977406, 40.741239 ] } },
{ "type": "Feature", "properties": { "SITE_NAME": "Trump Place", "SITE_NUMBER": "10559", "VOTER_ENTRANCE": "180 Riverside Blvd", "HANDICAP_ENTRANCE": "180 Riverside Blvd", "STREET_NUMBER": "180", "STREET_NAME": "Riverside Boulevard", "STREET_SUFFIX": null, "SITE_STATUS": "A", "CITY": "New York", "ZIP_CODE": "10069", "LOCATION 1 2": 40.778256, "LOCATION 2 1": -73.988579, "BOROUGH": 1 }, "geometry": { "type": "Point", "coordinates": [ -73.988579, 40.778256 ] } },
{ "type": "Feature", "properties": { "SITE_NAME": "NYU University Hall", "SITE_NUMBER": "10565", "VOTER_ENTRANCE": "110 East 14 Street", "HANDICAP_ENTRANCE": "East 13th Street (Between 3rd Ave & 4TH Ave)", "STREET_NUMBER": "110", "STREET_NAME": "East 14 Street", "STREET_SUFFIX": null, "SITE_STATUS": "A", "CITY": "New York", "ZIP_CODE": "10003", "LOCATION 1 2": 40.734003, "LOCATION 2 1": -73.989050, "BOROUGH": 1 }, "geometry": { "type": "Point", "coordinates": [ -73.98905, 40.734003 ] } },
{ "type": "Feature", "properties": { "SITE_NAME": "West Side High School", "SITE_NUMBER": "10569", "VOTER_ENTRANCE": "140 West 102 Street", "HANDICAP_ENTRANCE": "140 West 102 Street", "STREET_NUMBER": "140", "STREET_NAME": "West 102 Street", "STREET_SUFFIX": null, "SITE_STATUS": "A", "CITY": "New York", "ZIP_CODE": "10025", "LOCATION 1 2": 40.797493, "LOCATION 2 1": -73.966873, "BOROUGH": 1 }, "geometry": { "type": "Point", "coordinates": [ -73.966873, 40.797493 ] } },
{ "type": "Feature", "properties": { "SITE_NAME": "Kurt & Leah  Apts", "SITE_NUMBER": "10576", "VOTER_ENTRANCE": "11 West  102 Street", "HANDICAP_ENTRANCE": "11 West  102 Street", "STREET_NUMBER": "11", "STREET_NAME": "West 102 Street", "STREET_SUFFIX": null, "SITE_STATUS": "A", "CITY": "New York", "ZIP_CODE": "10025", "LOCATION 1 2": 40.795633, "LOCATION 2 1": -73.962078, "BOROUGH": 1 }, "geometry": { "type": "Point", "coordinates": [ -73.962078, 40.795633 ] } },
{ "type": "Feature", "properties": { "SITE_NAME": "PS 89", "SITE_NUMBER": "10577", "VOTER_ENTRANCE": "201 Warren Street", "HANDICAP_ENTRANCE": "Warren Street", "STREET_NUMBER": "201", "STREET_NAME": "Warren Street", "STREET_SUFFIX": null, "SITE_STATUS": "A", "CITY": "New York", "ZIP_CODE": "10282", "LOCATION 1 2": 40.716542, "LOCATION 2 1": -74.013468, "BOROUGH": 1 }, "geometry": { "type": "Point", "coordinates": [ -74.013468, 40.716542 ] } },
{ "type": "Feature", "properties": { "SITE_NAME": "Prince George Hotel", "SITE_NUMBER": "10594", "VOTER_ENTRANCE": "14 East 28 Street", "HANDICAP_ENTRANCE": "14 East 28 Street", "STREET_NUMBER": "14", "STREET_NAME": "East 28 Street", "STREET_SUFFIX": null, "SITE_STATUS": "A", "CITY": "New York", "ZIP_CODE": "10016", "LOCATION 1 2": 40.744225, "LOCATION 2 1": -73.986402, "BOROUGH": 1 }, "geometry": { "type": "Point", "coordinates": [ -73.986402, 40.744225 ] } },
{ "type": "Feature", "properties": { "SITE_NAME": "HS For Leadership", "SITE_NUMBER": "10611", "VOTER_ENTRANCE": "90 Trinity Place", "HANDICAP_ENTRANCE": "90 Trinity Place", "STREET_NUMBER": "90", "STREET_NAME": "Trinity Place", "STREET_SUFFIX": null, "SITE_STATUS": "A", "CITY": "New York", "ZIP_CODE": "10006", "LOCATION 1 2": 40.709154, "LOCATION 2 1": -74.012130, "BOROUGH": 1 }, "geometry": { "type": "Point", "coordinates": [ -74.01213, 40.709154 ] } },
{ "type": "Feature", "properties": { "SITE_NAME": "Confucius Plaza", "SITE_NUMBER": "10612", "VOTER_ENTRANCE": "33 Bowery", "HANDICAP_ENTRANCE": "20 Confucius Plaza", "STREET_NUMBER": "33", "STREET_NAME": "Bowery", "STREET_SUFFIX": null, "SITE_STATUS": "A", "CITY": "New York", "ZIP_CODE": "10002", "LOCATION 1 2": 40.714922, "LOCATION 2 1": -73.996774, "BOROUGH": 1 }, "geometry": { "type": "Point", "coordinates": [ -73.996774, 40.714922 ] } },
{ "type": "Feature", "properties": { "SITE_NAME": "Metro Council on Jewish Poverty", "SITE_NUMBER": "10620", "VOTER_ENTRANCE": "351 East 61 St bet. 2nd & 1st ave.", "HANDICAP_ENTRANCE": "351 East 61 St bet. 2nd & 1st ave.", "STREET_NUMBER": "351", "STREET_NAME": "East 61 Street", "STREET_SUFFIX": null, "SITE_STATUS": "A", "CITY": "New York", "ZIP_CODE": "10065", "LOCATION 1 2": 40.761242, "LOCATION 2 1": -73.961787, "BOROUGH": 1 }, "geometry": { "type": "Point", "coordinates": [ -73.961787, 40.761242 ] } },
{ "type": "Feature", "properties": { "SITE_NAME": "Residential Building", "SITE_NUMBER": "10657", "VOTER_ENTRANCE": "45 Wall Street", "HANDICAP_ENTRANCE": "45 Wall Street", "STREET_NUMBER": "45", "STREET_NAME": "Wall Street", "STREET_SUFFIX": null, "SITE_STATUS": "A", "CITY": "New York", "ZIP_CODE": "10005", "LOCATION 1 2": 40.706527, "LOCATION 2 1": -74.009875, "BOROUGH": 1 }, "geometry": { "type": "Point", "coordinates": [ -74.009875, 40.706527 ] } },
{ "type": "Feature", "properties": { "SITE_NAME": "The Regatta (Battery Park City Authority)", "SITE_NUMBER": "10659", "VOTER_ENTRANCE": "21 South End Avenue. Entrance is located on W. Thames St.", "HANDICAP_ENTRANCE": "21 South End Avenue. Entrance is located on W. Thames St.", "STREET_NUMBER": "21", "STREET_NAME": "South End Avenue", "STREET_SUFFIX": null, "SITE_STATUS": "A", "CITY": "New York", "ZIP_CODE": "10280", "LOCATION 1 2": 40.708096, "LOCATION 2 1": -74.017742, "BOROUGH": 1 }, "geometry": { "type": "Point", "coordinates": [ -74.017742, 40.708096 ] } },
{ "type": "Feature", "properties": { "SITE_NAME": "Red Oak Apartments", "SITE_NUMBER": "10710", "VOTER_ENTRANCE": "135 W 106 Street", "HANDICAP_ENTRANCE": "135 W 106 Street", "STREET_NUMBER": "135", "STREET_NAME": "West 106 Street", "STREET_SUFFIX": null, "SITE_STATUS": "A", "CITY": "New York", "ZIP_CODE": "10025", "LOCATION 1 2": 40.799727, "LOCATION 2 1": -73.963833, "BOROUGH": 1 }, "geometry": { "type": "Point", "coordinates": [ -73.963833, 40.799727 ] } },
{ "type": "Feature", "properties": { "SITE_NAME": "River Place 1", "SITE_NUMBER": "10726", "VOTER_ENTRANCE": "650 WEST 42ND STREET", "HANDICAP_ENTRANCE": "1 River Place", "STREET_NUMBER": "650", "STREET_NAME": "West 42 Street", "STREET_SUFFIX": null, "SITE_STATUS": "A", "CITY": "New York", "ZIP_CODE": "10036", "LOCATION 1 2": 40.761536, "LOCATION 2 1": -74.000193, "BOROUGH": 1 }, "geometry": { "type": "Point", "coordinates": [ -74.000193, 40.761536 ] } },
{ "type": "Feature", "properties": { "SITE_NAME": "School Of Co-op Education", "SITE_NUMBER": "10744", "VOTER_ENTRANCE": "321 East 96 Street", "HANDICAP_ENTRANCE": "321 East 96 Street", "STREET_NUMBER": "321", "STREET_NAME": "East 96 Street", "STREET_SUFFIX": null, "SITE_STATUS": "A", "CITY": "New York", "ZIP_CODE": "10128", "LOCATION 1 2": 40.783868, "LOCATION 2 1": -73.946010, "BOROUGH": 1 }, "geometry": { "type": "Point", "coordinates": [ -73.94601, 40.783868 ] } },
{ "type": "Feature", "properties": { "SITE_NAME": "PS 48", "SITE_NUMBER": "10746", "VOTER_ENTRANCE": "4360 Broadway", "HANDICAP_ENTRANCE": "4360 Broadway", "STREET_NUMBER": "4360", "STREET_NAME": "Broadway", "STREET_SUFFIX": null, "SITE_STATUS": "A", "CITY": "New York", "ZIP_CODE": "10033", "LOCATION 1 2": 40.853675, "LOCATION 2 1": -73.933854, "BOROUGH": 1 }, "geometry": { "type": "Point", "coordinates": [ -73.933854, 40.853675 ] } },
{ "type": "Feature", "properties": { "SITE_NAME": "Rutgers Presbyterian", "SITE_NUMBER": "10750", "VOTER_ENTRANCE": "236 West 73 Street", "HANDICAP_ENTRANCE": "Right Of Main Entrance", "STREET_NUMBER": "236", "STREET_NAME": "West 73 Street", "STREET_SUFFIX": null, "SITE_STATUS": "A", "CITY": "New York", "ZIP_CODE": "10023", "LOCATION 1 2": 40.779864, "LOCATION 2 1": -73.982688, "BOROUGH": 1 }, "geometry": { "type": "Point", "coordinates": [ -73.982688, 40.779864 ] } },
{ "type": "Feature", "properties": { "SITE_NAME": "Armenian Church", "SITE_NUMBER": "10759", "VOTER_ENTRANCE": "630 2 Avenue", "HANDICAP_ENTRANCE": "East 35th Street (Between 1st & 2nd Ave)", "STREET_NUMBER": "630", "STREET_NAME": "2 Avenue", "STREET_SUFFIX": null, "SITE_STATUS": "A", "CITY": "New York", "ZIP_CODE": "10016", "LOCATION 1 2": 40.744994, "LOCATION 2 1": -73.975622, "BOROUGH": 1 }, "geometry": { "type": "Point", "coordinates": [ -73.975622, 40.744994 ] } },
{ "type": "Feature", "properties": { "SITE_NAME": "St Nicholas Sr Ctr", "SITE_NUMBER": "10760", "VOTER_ENTRANCE": "210 West 131 Street", "HANDICAP_ENTRANCE": "210 West 131 Street", "STREET_NUMBER": "210", "STREET_NAME": "West 131 Street", "STREET_SUFFIX": null, "SITE_STATUS": "A", "CITY": "New York", "ZIP_CODE": "10027", "LOCATION 1 2": 40.812813, "LOCATION 2 1": -73.945937, "BOROUGH": 1 }, "geometry": { "type": "Point", "coordinates": [ -73.945937, 40.812813 ] } },
{ "type": "Feature", "properties": { "SITE_NAME": "Samuels Community Center", "SITE_NUMBER": "10768", "VOTER_ENTRANCE": "669 Malcolm X Blvd", "HANDICAP_ENTRANCE": "669 Malcolm X Blvd", "STREET_NUMBER": "669", "STREET_NAME": "Malcolm X Boulevard", "STREET_SUFFIX": null, "SITE_STATUS": "A", "CITY": "New York", "ZIP_CODE": "10037", "LOCATION 1 2": 40.819451, "LOCATION 2 1": -73.937150, "BOROUGH": 1 }, "geometry": { "type": "Point", "coordinates": [ -73.93715, 40.819451 ] } },
{ "type": "Feature", "properties": { "SITE_NAME": "CUNY", "SITE_NUMBER": "10799", "VOTER_ENTRANCE": "365 5 Avenue", "HANDICAP_ENTRANCE": "365 5 Avenue", "STREET_NUMBER": "365", "STREET_NAME": "5 Avenue", "STREET_SUFFIX": null, "SITE_STATUS": "A", "CITY": "New York", "ZIP_CODE": "10016", "LOCATION 1 2": 40.748800, "LOCATION 2 1": -73.984193, "BOROUGH": 1 }, "geometry": { "type": "Point", "coordinates": [ -73.984193, 40.7488 ] } },
{ "type": "Feature", "properties": { "SITE_NAME": "Marymount Manhattan College", "SITE_NUMBER": "10831", "VOTER_ENTRANCE": "221 East 71 Street", "HANDICAP_ENTRANCE": "221 East 71 Street", "STREET_NUMBER": "221", "STREET_NAME": "East 71 Street", "STREET_SUFFIX": null, "SITE_STATUS": "A", "CITY": "NY", "ZIP_CODE": "10021", "LOCATION 1 2": 40.768804, "LOCATION 2 1": -73.960300, "BOROUGH": 1 }, "geometry": { "type": "Point", "coordinates": [ -73.9603, 40.768804 ] } },
{ "type": "Feature", "properties": { "SITE_NAME": "Holy Trinity Cathedral", "SITE_NUMBER": "10837", "VOTER_ENTRANCE": "337 East 74 Street", "HANDICAP_ENTRANCE": "337 East 74 Street", "STREET_NUMBER": "337", "STREET_NAME": "East 74 Street", "STREET_SUFFIX": null, "SITE_STATUS": "A", "CITY": "New York", "ZIP_CODE": "10021", "LOCATION 1 2": 40.769801, "LOCATION 2 1": -73.956463, "BOROUGH": 1 }, "geometry": { "type": "Point", "coordinates": [ -73.956463, 40.769801 ] } },
{ "type": "Feature", "properties": { "SITE_NAME": "Antler Apartments", "SITE_NUMBER": "10927", "VOTER_ENTRANCE": "2079 8th Avenue", "HANDICAP_ENTRANCE": "2079 8th Avenue", "STREET_NUMBER": "2079", "STREET_NAME": "8 Avenue", "STREET_SUFFIX": null, "SITE_STATUS": "A", "CITY": "New York", "ZIP_CODE": "10026", "LOCATION 1 2": 40.802174, "LOCATION 2 1": -73.957110, "BOROUGH": 1 }, "geometry": { "type": "Point", "coordinates": [ -73.95711, 40.802174 ] } },
{ "type": "Feature", "properties": { "SITE_NAME": "Boricua College", "SITE_NUMBER": "10928", "VOTER_ENTRANCE": "3755 Broadway", "HANDICAP_ENTRANCE": "3755 Broadway", "STREET_NUMBER": "3755", "STREET_NAME": "Broadway", "STREET_SUFFIX": null, "SITE_STATUS": "A", "CITY": "New York", "ZIP_CODE": "10032", "LOCATION 1 2": 40.833432, "LOCATION 2 1": -73.945542, "BOROUGH": 1 }, "geometry": { "type": "Point", "coordinates": [ -73.945542, 40.833432 ] } },
{ "type": "Feature", "properties": { "SITE_NAME": "Covenant House", "SITE_NUMBER": "10930", "VOTER_ENTRANCE": "460 West 41 Street", "HANDICAP_ENTRANCE": "460 West 41 Street", "STREET_NUMBER": "460", "STREET_NAME": "West 41 Street", "STREET_SUFFIX": null, "SITE_STATUS": "A", "CITY": "New York", "ZIP_CODE": "10036", "LOCATION 1 2": 40.758554, "LOCATION 2 1": -73.995111, "BOROUGH": 1 }, "geometry": { "type": "Point", "coordinates": [ -73.995111, 40.758554 ] } },
{ "type": "Feature", "properties": { "SITE_NAME": "Baruch College Vertical Campus", "SITE_NUMBER": "10932", "VOTER_ENTRANCE": "E. 25th Str (Bet. Lexington and 3rd Aves)", "HANDICAP_ENTRANCE": "E. 25th Str (Bet. Lexington and 3rd Aves)", "STREET_NUMBER": "55", "STREET_NAME": "Lexington Avenue", "STREET_SUFFIX": null, "SITE_STATUS": "A", "CITY": "New York", "ZIP_CODE": "10010", "LOCATION 1 2": 40.740578, "LOCATION 2 1": -73.983862, "BOROUGH": 1 }, "geometry": { "type": "Point", "coordinates": [ -73.983862, 40.740578 ] } },
{ "type": "Feature", "properties": { "SITE_NAME": "Continental East", "SITE_NUMBER": "10958", "VOTER_ENTRANCE": "353 East 83 Street", "HANDICAP_ENTRANCE": "353 East 83 Street", "STREET_NUMBER": "353", "STREET_NAME": "East 83 Street", "STREET_SUFFIX": null, "SITE_STATUS": "A", "CITY": "New York", "ZIP_CODE": "10028", "LOCATION 1 2": 40.775456, "LOCATION 2 1": -73.951869, "BOROUGH": 1 }, "geometry": { "type": "Point", "coordinates": [ -73.951869, 40.775456 ] } },
{ "type": "Feature", "properties": { "SITE_NAME": "Central Syn Pavilion", "SITE_NUMBER": "10980", "VOTER_ENTRANCE": "652 Lexington Avenue", "HANDICAP_ENTRANCE": "652 Lexington Avenue", "STREET_NUMBER": "652", "STREET_NAME": "Lexington Avenue", "STREET_SUFFIX": null, "SITE_STATUS": "A", "CITY": "New York", "ZIP_CODE": "10022", "LOCATION 1 2": 40.759536, "LOCATION 2 1": -73.970250, "BOROUGH": 1 }, "geometry": { "type": "Point", "coordinates": [ -73.97025, 40.759536 ] } },
{ "type": "Feature", "properties": { "SITE_NAME": "The Riverside Rehabilitation Center", "SITE_NUMBER": "10981", "VOTER_ENTRANCE": "150 Riverside Drive", "HANDICAP_ENTRANCE": "150 Riverside Drive", "STREET_NUMBER": "150", "STREET_NAME": "Riverside Drive", "STREET_SUFFIX": null, "SITE_STATUS": "A", "CITY": "New York", "ZIP_CODE": "10024", "LOCATION 1 2": 40.790649, "LOCATION 2 1": -73.979729, "BOROUGH": 1 }, "geometry": { "type": "Point", "coordinates": [ -73.979729, 40.790649 ] } },
{ "type": "Feature", "properties": { "SITE_NAME": "The Riverside Church of NY", "SITE_NUMBER": "10993", "VOTER_ENTRANCE": "91 Claremont Avenue", "HANDICAP_ENTRANCE": "91 Claremont Avenue", "STREET_NUMBER": "91", "STREET_NAME": "Claremont Avenue", "STREET_SUFFIX": null, "SITE_STATUS": "A", "CITY": "New York", "ZIP_CODE": "10027", "LOCATION 1 2": 40.811691, "LOCATION 2 1": -73.963154, "BOROUGH": 1 }, "geometry": { "type": "Point", "coordinates": [ -73.963154, 40.811691 ] } },
{ "type": "Feature", "properties": { "SITE_NAME": "Eleanor Roosevelt HS", "SITE_NUMBER": "11095", "VOTER_ENTRANCE": "411 East   76 Street", "HANDICAP_ENTRANCE": "411 East   76 Street", "STREET_NUMBER": "411", "STREET_NAME": "East 76 Street", "STREET_SUFFIX": null, "SITE_STATUS": "A", "CITY": "New York", "ZIP_CODE": "10021", "LOCATION 1 2": 40.770321, "LOCATION 2 1": -73.953760, "BOROUGH": 1 }, "geometry": { "type": "Point", "coordinates": [ -73.95376, 40.770321 ] } },
{ "type": "Feature", "properties": { "SITE_NAME": "Clinton Senior Center", "SITE_NUMBER": "11119", "VOTER_ENTRANCE": "530 West 55 Street", "HANDICAP_ENTRANCE": "530 West 55 Street", "STREET_NUMBER": "530", "STREET_NAME": "West 55 Street", "STREET_SUFFIX": null, "SITE_STATUS": "A", "CITY": "New York", "ZIP_CODE": "10019", "LOCATION 1 2": 40.768313, "LOCATION 2 1": -73.990890, "BOROUGH": 1 }, "geometry": { "type": "Point", "coordinates": [ -73.99089, 40.768313 ] } },
{ "type": "Feature", "properties": { "SITE_NAME": "Stuyvesant Town VI", "SITE_NUMBER": "11122", "VOTER_ENTRANCE": "525 East 14th Street", "HANDICAP_ENTRANCE": "525 East 14th Street", "STREET_NUMBER": "525", "STREET_NAME": "East 14 Street", "STREET_SUFFIX": null, "SITE_STATUS": "A", "CITY": "New York", "ZIP_CODE": "10009", "LOCATION 1 2": 40.730409, "LOCATION 2 1": -73.979781, "BOROUGH": 1 }, "geometry": { "type": "Point", "coordinates": [ -73.979781, 40.730409 ] } },
{ "type": "Feature", "properties": { "SITE_NAME": "Martin Luther King Jr. Comm. Ctr.", "SITE_NUMBER": "11169", "VOTER_ENTRANCE": "2 West 115th Street", "HANDICAP_ENTRANCE": "2 West 115th Street", "STREET_NUMBER": "2", "STREET_NAME": "West 115th Street", "STREET_SUFFIX": null, "SITE_STATUS": "A", "CITY": "New York", "ZIP_CODE": "10026", "LOCATION 1 2": 40.799940, "LOCATION 2 1": -73.947108, "BOROUGH": 1 }, "geometry": { "type": "Point", "coordinates": [ -73.947108, 40.79994 ] } },
{ "type": "Feature", "properties": { "SITE_NAME": "Unity Center", "SITE_NUMBER": "11191", "VOTER_ENTRANCE": "213 West 58 Street", "HANDICAP_ENTRANCE": "213 West 58 Street", "STREET_NUMBER": "213", "STREET_NAME": "West 58 Street", "STREET_SUFFIX": null, "SITE_STATUS": "A", "CITY": "New York", "ZIP_CODE": "10019", "LOCATION 1 2": 40.766504, "LOCATION 2 1": -73.980096, "BOROUGH": 1 }, "geometry": { "type": "Point", "coordinates": [ -73.980096, 40.766504 ] } },
{ "type": "Feature", "properties": { "SITE_NAME": "NYU Alumni Hall", "SITE_NUMBER": "11193", "VOTER_ENTRANCE": "33 3 Avenue", "HANDICAP_ENTRANCE": "33 3 Avenue", "STREET_NUMBER": "33", "STREET_NAME": "3 Avenue", "STREET_SUFFIX": null, "SITE_STATUS": "A", "CITY": "New York", "ZIP_CODE": "10003", "LOCATION 1 2": 40.730232, "LOCATION 2 1": -73.989301, "BOROUGH": 1 }, "geometry": { "type": "Point", "coordinates": [ -73.989301, 40.730232 ] } },
{ "type": "Feature", "properties": { "SITE_NAME": "MS 114", "SITE_NUMBER": "11194", "VOTER_ENTRANCE": "331 East 91 Street", "HANDICAP_ENTRANCE": "331 East 91 Street", "STREET_NUMBER": "331", "STREET_NAME": "East 91 Street", "STREET_SUFFIX": null, "SITE_STATUS": "A", "CITY": "New York", "ZIP_CODE": "10128", "LOCATION 1 2": 40.780801, "LOCATION 2 1": -73.948614, "BOROUGH": 1 }, "geometry": { "type": "Point", "coordinates": [ -73.948614, 40.780801 ] } },
{ "type": "Feature", "properties": { "SITE_NAME": "City Planning", "SITE_NUMBER": "11196", "VOTER_ENTRANCE": "22 Reade Street", "HANDICAP_ENTRANCE": "22 Reade Street", "STREET_NUMBER": "22", "STREET_NAME": "Reade Street", "STREET_SUFFIX": null, "SITE_STATUS": "A", "CITY": "New York", "ZIP_CODE": "10007", "LOCATION 1 2": 40.714241, "LOCATION 2 1": -74.004758, "BOROUGH": 1 }, "geometry": { "type": "Point", "coordinates": [ -74.004758, 40.714241 ] } },
{ "type": "Feature", "properties": { "SITE_NAME": "Boys & Girls Republic", "SITE_NUMBER": "11197", "VOTER_ENTRANCE": "888 East 6 Street", "HANDICAP_ENTRANCE": "888 East 6 Street", "STREET_NUMBER": "888", "STREET_NAME": "East 6 Street", "STREET_SUFFIX": null, "SITE_STATUS": "A", "CITY": "New York", "ZIP_CODE": "10009", "LOCATION 1 2": 40.722064, "LOCATION 2 1": -73.976056, "BOROUGH": 1 }, "geometry": { "type": "Point", "coordinates": [ -73.976056, 40.722064 ] } },
{ "type": "Feature", "properties": { "SITE_NAME": "Park West High School", "SITE_NUMBER": "11220", "VOTER_ENTRANCE": "525 West 50 Street", "HANDICAP_ENTRANCE": "525 West 50 Street", "STREET_NUMBER": "525", "STREET_NAME": "West 50 Street", "STREET_SUFFIX": null, "SITE_STATUS": "A", "CITY": "New York", "ZIP_CODE": "10019", "LOCATION 1 2": 40.765059, "LOCATION 2 1": -73.992486, "BOROUGH": 1 }, "geometry": { "type": "Point", "coordinates": [ -73.992486, 40.765059 ] } },
{ "type": "Feature", "properties": { "SITE_NAME": "PS 276", "SITE_NUMBER": "11225", "VOTER_ENTRANCE": "55 Battery Place", "HANDICAP_ENTRANCE": "Second Pl. (Bet. Battery Pl & Little West St)", "STREET_NUMBER": "55", "STREET_NAME": "Battery Place", "STREET_SUFFIX": null, "SITE_STATUS": "A", "CITY": "New York", "ZIP_CODE": "10280", "LOCATION 1 2": 40.706866, "LOCATION 2 1": -74.017248, "BOROUGH": 1 }, "geometry": { "type": "Point", "coordinates": [ -74.017248, 40.706866 ] } },
{ "type": "Feature", "properties": { "SITE_NAME": "UASBYW", "SITE_NUMBER": "11255", "VOTER_ENTRANCE": "81 New Street", "HANDICAP_ENTRANCE": "5 Beaver Street", "STREET_NUMBER": "81", "STREET_NAME": "New Street", "STREET_SUFFIX": null, "SITE_STATUS": "A", "CITY": "New York", "ZIP_CODE": "10004", "LOCATION 1 2": 40.705481, "LOCATION 2 1": -74.012492, "BOROUGH": 1 }, "geometry": { "type": "Point", "coordinates": [ -74.012492, 40.705481 ] } },
{ "type": "Feature", "properties": { "SITE_NAME": "PS 184M", "SITE_NUMBER": "11260", "VOTER_ENTRANCE": "327 Cherry Street", "HANDICAP_ENTRANCE": "327 Cherry Street", "STREET_NUMBER": "327", "STREET_NAME": "Cherry Street", "STREET_SUFFIX": null, "SITE_STATUS": "A", "CITY": "New York", "ZIP_CODE": "10002", "LOCATION 1 2": 40.711494, "LOCATION 2 1": -73.986492, "BOROUGH": 1 }, "geometry": { "type": "Point", "coordinates": [ -73.986492, 40.711494 ] } },
{ "type": "Feature", "properties": { "SITE_NAME": "Gregorio Luperone HS", "SITE_NUMBER": "11261", "VOTER_ENTRANCE": "501 West 165 Street", "HANDICAP_ENTRANCE": "501 West 165 Street", "STREET_NUMBER": "501", "STREET_NAME": "West 165 Street", "STREET_SUFFIX": null, "SITE_STATUS": "A", "CITY": "New York", "ZIP_CODE": "10032", "LOCATION 1 2": 40.838064, "LOCATION 2 1": -73.938340, "BOROUGH": 1 }, "geometry": { "type": "Point", "coordinates": [ -73.93834, 40.838064 ] } },
{ "type": "Feature", "properties": { "SITE_NAME": "21st Century Leadership Academy", "SITE_NUMBER": "11263", "VOTER_ENTRANCE": "501 West 152nd Street", "HANDICAP_ENTRANCE": "501 West 152nd Street", "STREET_NUMBER": "501", "STREET_NAME": "West 152 Street", "STREET_SUFFIX": null, "SITE_STATUS": "A", "CITY": "New York", "ZIP_CODE": "10031", "LOCATION 1 2": 40.829749, "LOCATION 2 1": -73.944430, "BOROUGH": 1 }, "geometry": { "type": "Point", "coordinates": [ -73.94443, 40.829749 ] } },
{ "type": "Feature", "properties": { "SITE_NAME": "Metro North\/River Crossing", "SITE_NUMBER": "11265", "VOTER_ENTRANCE": "1956 1 Avenue", "HANDICAP_ENTRANCE": "1956 1 Avenue", "STREET_NUMBER": "1956", "STREET_NAME": "1 Avenue", "STREET_SUFFIX": null, "SITE_STATUS": "A", "CITY": "New York", "ZIP_CODE": "10029", "LOCATION 1 2": 40.786053, "LOCATION 2 1": -73.942572, "BOROUGH": 1 }, "geometry": { "type": "Point", "coordinates": [ -73.942572, 40.786053 ] } },
{ "type": "Feature", "properties": { "SITE_NAME": "Grace United Methodist Church", "SITE_NUMBER": "11270", "VOTER_ENTRANCE": "125 West 104 Street", "HANDICAP_ENTRANCE": "125 West 104 Street", "STREET_NUMBER": "125", "STREET_NAME": "West 104 Street", "STREET_SUFFIX": null, "SITE_STATUS": "A", "CITY": "New York", "ZIP_CODE": "10025", "LOCATION 1 2": 40.798281, "LOCATION 2 1": -73.964525, "BOROUGH": 1 }, "geometry": { "type": "Point", "coordinates": [ -73.964525, 40.798281 ] } },
{ "type": "Feature", "properties": { "SITE_NAME": "NYU The Palladium", "SITE_NUMBER": "11287", "VOTER_ENTRANCE": "133 East 13th Street", "HANDICAP_ENTRANCE": "133 East 13th Street", "STREET_NUMBER": "133", "STREET_NAME": "East 13 Street", "STREET_SUFFIX": null, "SITE_STATUS": "A", "CITY": "New York", "ZIP_CODE": "10003", "LOCATION 1 2": 40.733265, "LOCATION 2 1": -73.989074, "BOROUGH": 1 }, "geometry": { "type": "Point", "coordinates": [ -73.989074, 40.733265 ] } },
{ "type": "Feature", "properties": { "SITE_NAME": "Lenfest Hall", "SITE_NUMBER": "11461", "VOTER_ENTRANCE": "425 West 121 Street", "HANDICAP_ENTRANCE": "425 West 121 Street", "STREET_NUMBER": "425", "STREET_NAME": "West 121 Street", "STREET_SUFFIX": null, "SITE_STATUS": "A", "CITY": "New York", "ZIP_CODE": "10027", "LOCATION 1 2": 40.809838, "LOCATION 2 1": -73.957994, "BOROUGH": 1 }, "geometry": { "type": "Point", "coordinates": [ -73.957994, 40.809838 ] } },
{ "type": "Feature", "properties": { "SITE_NAME": "Community Health Academy of The Heights", "SITE_NUMBER": "11474", "VOTER_ENTRANCE": "504 West 158 Street", "HANDICAP_ENTRANCE": "504 West 158 Street", "STREET_NUMBER": "504", "STREET_NAME": "West 158 Street", "STREET_SUFFIX": null, "SITE_STATUS": "A", "CITY": "New York", "ZIP_CODE": "10032", "LOCATION 1 2": 40.833492, "LOCATION 2 1": -73.941901, "BOROUGH": 1 }, "geometry": { "type": "Point", "coordinates": [ -73.941901, 40.833492 ] } },
{ "type": "Feature", "properties": { "SITE_NAME": "Castle Gardens", "SITE_NUMBER": "11479", "VOTER_ENTRANCE": "625 West 140 Street", "HANDICAP_ENTRANCE": "625 West 140 Street", "STREET_NUMBER": "625", "STREET_NAME": "West 140 Street", "STREET_SUFFIX": null, "SITE_STATUS": "A", "CITY": "New York", "ZIP_CODE": "10031", "LOCATION 1 2": 40.823947, "LOCATION 2 1": -73.954110, "BOROUGH": 1 }, "geometry": { "type": "Point", "coordinates": [ -73.95411, 40.823947 ] } },
{ "type": "Feature", "properties": { "SITE_NAME": "Stuyvesant Town II", "SITE_NUMBER": "M0002", "VOTER_ENTRANCE": "10 Stuyvesant Oval", "HANDICAP_ENTRANCE": "10 Stuyvesant Oval", "STREET_NUMBER": "10", "STREET_NAME": "Stuyvesant Oval", "STREET_SUFFIX": null, "SITE_STATUS": "A", "CITY": "New York", "ZIP_CODE": "10009", "LOCATION 1 2": 40.730824, "LOCATION 2 1": -73.976698, "BOROUGH": 1 }, "geometry": { "type": "Point", "coordinates": [ -73.976698, 40.730824 ] } },
{ "type": "Feature", "properties": { "SITE_NAME": "Good Shepherd Church", "SITE_NUMBER": "M0011", "VOTER_ENTRANCE": "110 Cooper Street", "HANDICAP_ENTRANCE": "110 Cooper Street", "STREET_NUMBER": "104", "STREET_NAME": "Cooper Street", "STREET_SUFFIX": null, "SITE_STATUS": "A", "CITY": "New York", "ZIP_CODE": "10034", "LOCATION 1 2": 40.868683, "LOCATION 2 1": -73.921420, "BOROUGH": 1 }, "geometry": { "type": "Point", "coordinates": [ -73.92142, 40.868683 ] } },
{ "type": "Feature", "properties": { "SITE_NAME": "Civil Court", "SITE_NUMBER": "M0012", "VOTER_ENTRANCE": "111 Centre Street", "HANDICAP_ENTRANCE": "111 Centre Street", "STREET_NUMBER": "111", "STREET_NAME": "Centre Street", "STREET_SUFFIX": null, "SITE_STATUS": "A", "CITY": "New York", "ZIP_CODE": "10013", "LOCATION 1 2": 40.716463, "LOCATION 2 1": -74.001254, "BOROUGH": 1 }, "geometry": { "type": "Point", "coordinates": [ -74.001254, 40.716463 ] } },
{ "type": "Feature", "properties": { "SITE_NAME": "Norman Thomas HS", "SITE_NUMBER": "M0013", "VOTER_ENTRANCE": "111 East 33 Street", "HANDICAP_ENTRANCE": "111 East 33 Street", "STREET_NUMBER": "111", "STREET_NAME": "East 33 Street", "STREET_SUFFIX": null, "SITE_STATUS": "A", "CITY": "New York", "ZIP_CODE": "10016", "LOCATION 1 2": 40.746252, "LOCATION 2 1": -73.981256, "BOROUGH": 1 }, "geometry": { "type": "Point", "coordinates": [ -73.981256, 40.746252 ] } },
{ "type": "Feature", "properties": { "SITE_NAME": "Find Aid For Aged (Hargrave)", "SITE_NUMBER": "M0014", "VOTER_ENTRANCE": "111 West 71 Street", "HANDICAP_ENTRANCE": "111 West 71 Street", "STREET_NUMBER": "111", "STREET_NAME": "West 71 Street", "STREET_SUFFIX": null, "SITE_STATUS": "A", "CITY": "New York", "ZIP_CODE": "10023", "LOCATION 1 2": 40.776926, "LOCATION 2 1": -73.979575, "BOROUGH": 1 }, "geometry": { "type": "Point", "coordinates": [ -73.979575, 40.776926 ] } },
{ "type": "Feature", "properties": { "SITE_NAME": "Triangle House", "SITE_NUMBER": "M0015", "VOTER_ENTRANCE": "112 East 128 Street", "HANDICAP_ENTRANCE": "112 East 128 Street", "STREET_NUMBER": "112", "STREET_NAME": "East 128 Street", "STREET_SUFFIX": null, "SITE_STATUS": "A", "CITY": "New York", "ZIP_CODE": "10035", "LOCATION 1 2": 40.806665, "LOCATION 2 1": -73.937085, "BOROUGH": 1 }, "geometry": { "type": "Point", "coordinates": [ -73.937085, 40.806665 ] } },
{ "type": "Feature", "properties": { "SITE_NAME": "PS 169", "SITE_NUMBER": "M0018", "VOTER_ENTRANCE": "110 East 88 Street", "HANDICAP_ENTRANCE": "East 88th Street", "STREET_NUMBER": "110", "STREET_NAME": "East 88 Street", "STREET_SUFFIX": null, "SITE_STATUS": "A", "CITY": "New York", "ZIP_CODE": "10128", "LOCATION 1 2": 40.781243, "LOCATION 2 1": -73.955869, "BOROUGH": 1 }, "geometry": { "type": "Point", "coordinates": [ -73.955869, 40.781243 ] } },
{ "type": "Feature", "properties": { "SITE_NAME": "PS 41", "SITE_NUMBER": "M0019", "VOTER_ENTRANCE": "116 West 11 Street", "HANDICAP_ENTRANCE": "116 West 11 Street", "STREET_NUMBER": "116", "STREET_NAME": "West 11 Street", "STREET_SUFFIX": null, "SITE_STATUS": "A", "CITY": "New York", "ZIP_CODE": "10011", "LOCATION 1 2": 40.735549, "LOCATION 2 1": -73.998839, "BOROUGH": 1 }, "geometry": { "type": "Point", "coordinates": [ -73.998839, 40.735549 ] } },
{ "type": "Feature", "properties": { "SITE_NAME": "Jewish Home Life Care Manhattan", "SITE_NUMBER": "M0021", "VOTER_ENTRANCE": "120 West 106 Street", "HANDICAP_ENTRANCE": "120 West 106 Street", "STREET_NUMBER": "120", "STREET_NAME": "West 106 Street", "STREET_SUFFIX": null, "SITE_STATUS": "A", "CITY": "New York", "ZIP_CODE": "10025", "LOCATION 1 2": 40.799447, "LOCATION 2 1": -73.963541, "BOROUGH": 1 }, "geometry": { "type": "Point", "coordinates": [ -73.963541, 40.799447 ] } },
{ "type": "Feature", "properties": { "SITE_NAME": "PS 63", "SITE_NUMBER": "M0023", "VOTER_ENTRANCE": "121 East 3 Street", "HANDICAP_ENTRANCE": "121 East 3 Street", "STREET_NUMBER": "121", "STREET_NAME": "East 3 Street", "STREET_SUFFIX": null, "SITE_STATUS": "A", "CITY": "New York", "ZIP_CODE": "10009", "LOCATION 1 2": 40.724230, "LOCATION 2 1": -73.986482, "BOROUGH": 1 }, "geometry": { "type": "Point", "coordinates": [ -73.986482, 40.72423 ] } },
{ "type": "Feature", "properties": { "SITE_NAME": "PS 2 (Meyer London)", "SITE_NUMBER": "M0024", "VOTER_ENTRANCE": "122 Henry Street", "HANDICAP_ENTRANCE": "Madison Street", "STREET_NUMBER": "122", "STREET_NAME": "Henry Street", "STREET_SUFFIX": null, "SITE_STATUS": "A", "CITY": "New York", "ZIP_CODE": "10002", "LOCATION 1 2": 40.713216, "LOCATION 2 1": -73.991249, "BOROUGH": 1 }, "geometry": { "type": "Point", "coordinates": [ -73.991249, 40.713216 ] } },
{ "type": "Feature", "properties": { "SITE_NAME": "PS 36", "SITE_NUMBER": "M0026", "VOTER_ENTRANCE": "123 Morningside Drive", "HANDICAP_ENTRANCE": "123 Morningside Drive", "STREET_NUMBER": "123", "STREET_NAME": "Morningside Drive", "STREET_SUFFIX": null, "SITE_STATUS": "A", "CITY": "New York", "ZIP_CODE": "10027", "LOCATION 1 2": 40.810246, "LOCATION 2 1": -73.957280, "BOROUGH": 1 }, "geometry": { "type": "Point", "coordinates": [ -73.95728, 40.810246 ] } },
{ "type": "Feature", "properties": { "SITE_NAME": "PS 140", "SITE_NUMBER": "M0027", "VOTER_ENTRANCE": "123 Ridge Street", "HANDICAP_ENTRANCE": "Rivington & Attorney Streets", "STREET_NUMBER": "123", "STREET_NAME": "Ridge Street", "STREET_SUFFIX": null, "SITE_STATUS": "A", "CITY": "New York", "ZIP_CODE": "10002", "LOCATION 1 2": 40.719198, "LOCATION 2 1": -73.983168, "BOROUGH": 1 }, "geometry": { "type": "Point", "coordinates": [ -73.983168, 40.719198 ] } },
{ "type": "Feature", "properties": { "SITE_NAME": "Esplanade Gardens", "SITE_NUMBER": "M0028", "VOTER_ENTRANCE": "129 West 147 Street", "HANDICAP_ENTRANCE": "West 148 Street & 7 Avenue", "STREET_NUMBER": "129", "STREET_NAME": "West 147 Street", "STREET_SUFFIX": null, "SITE_STATUS": "A", "CITY": "New York", "ZIP_CODE": "10039", "LOCATION 1 2": 40.822162, "LOCATION 2 1": -73.936110, "BOROUGH": 1 }, "geometry": { "type": "Point", "coordinates": [ -73.93611, 40.822162 ] } },
{ "type": "Feature", "properties": { "SITE_NAME": "PS 72", "SITE_NUMBER": "M0032", "VOTER_ENTRANCE": "131 East 104 Street", "HANDICAP_ENTRANCE": "131 East 104 Street", "STREET_NUMBER": "131", "STREET_NAME": "East 104 Street", "STREET_SUFFIX": null, "SITE_STATUS": "A", "CITY": "New York", "ZIP_CODE": "10029", "LOCATION 1 2": 40.791245, "LOCATION 2 1": -73.947767, "BOROUGH": 1 }, "geometry": { "type": "Point", "coordinates": [ -73.947767, 40.791245 ] } },
{ "type": "Feature", "properties": { "SITE_NAME": "Associated Blind", "SITE_NUMBER": "M0037", "VOTER_ENTRANCE": "135 West 23 Street", "HANDICAP_ENTRANCE": "135 West 23 Street", "STREET_NUMBER": "135", "STREET_NAME": "West 23 Street", "STREET_SUFFIX": null, "SITE_STATUS": "A", "CITY": "New York", "ZIP_CODE": "10011", "LOCATION 1 2": 40.743387, "LOCATION 2 1": -73.993779, "BOROUGH": 1 }, "geometry": { "type": "Point", "coordinates": [ -73.993779, 40.743387 ] } },
{ "type": "Feature", "properties": { "SITE_NAME": "Baruch Coll Newman Hall", "SITE_NUMBER": "M0038", "VOTER_ENTRANCE": "137 East 22 Street", "HANDICAP_ENTRANCE": "135 East 22nd Street", "STREET_NUMBER": "137", "STREET_NAME": "East 22 Street", "STREET_SUFFIX": null, "SITE_STATUS": "A", "CITY": "New York", "ZIP_CODE": "10010", "LOCATION 1 2": 40.738807, "LOCATION 2 1": -73.984966, "BOROUGH": 1 }, "geometry": { "type": "Point", "coordinates": [ -73.984966, 40.738807 ] } },
{ "type": "Feature", "properties": { "SITE_NAME": "YM & YWHA (Lex. Ave)", "SITE_NUMBER": "M0039", "VOTER_ENTRANCE": "1395 Lexington Avenue", "HANDICAP_ENTRANCE": "1395 Lexington Avenue", "STREET_NUMBER": "1395", "STREET_NAME": "Lexington Avenue", "STREET_SUFFIX": null, "SITE_STATUS": "A", "CITY": "New York", "ZIP_CODE": "10128", "LOCATION 1 2": 40.783002, "LOCATION 2 1": -73.952920, "BOROUGH": 1 }, "geometry": { "type": "Point", "coordinates": [ -73.95292, 40.783002 ] } },
{ "type": "Feature", "properties": { "SITE_NAME": "Lincoln Towers", "SITE_NUMBER": "M0041", "VOTER_ENTRANCE": "140 West End Avenue", "HANDICAP_ENTRANCE": "140 West End Avenue", "STREET_NUMBER": "140", "STREET_NAME": "West End Avenue", "STREET_SUFFIX": null, "SITE_STATUS": "A", "CITY": "New York", "ZIP_CODE": "10023", "LOCATION 1 2": 40.776049, "LOCATION 2 1": -73.987108, "BOROUGH": 1 }, "geometry": { "type": "Point", "coordinates": [ -73.987108, 40.776049 ] } },
{ "type": "Feature", "properties": { "SITE_NAME": "Find Aid For Aged (Hamilton)", "SITE_NUMBER": "M0043", "VOTER_ENTRANCE": "141 West 73 Street", "HANDICAP_ENTRANCE": "141 West 73 Street", "STREET_NUMBER": "141", "STREET_NAME": "West 73 Street", "STREET_SUFFIX": null, "SITE_STATUS": "A", "CITY": "New York", "ZIP_CODE": "10023", "LOCATION 1 2": 40.778652, "LOCATION 2 1": -73.979427, "BOROUGH": 1 }, "geometry": { "type": "Point", "coordinates": [ -73.979427, 40.778652 ] } },
{ "type": "Feature", "properties": { "SITE_NAME": "PS 87", "SITE_NUMBER": "M0044", "VOTER_ENTRANCE": "141 WEST 77 Street", "HANDICAP_ENTRANCE": "141 WEST 77 Street", "STREET_NUMBER": "160", "STREET_NAME": "West 78 Street", "STREET_SUFFIX": null, "SITE_STATUS": "A", "CITY": "New York", "ZIP_CODE": "10024", "LOCATION 1 2": 40.782144, "LOCATION 2 1": -73.978255, "BOROUGH": 1 }, "geometry": { "type": "Point", "coordinates": [ -73.978255, 40.782144 ] } },
{ "type": "Feature", "properties": { "SITE_NAME": "PS 130", "SITE_NUMBER": "M0046", "VOTER_ENTRANCE": "143 Baxter Street", "HANDICAP_ENTRANCE": "143 Baxter Street", "STREET_NUMBER": "143", "STREET_NAME": "Baxter Street", "STREET_SUFFIX": null, "SITE_STATUS": "A", "CITY": "New York", "ZIP_CODE": "10013", "LOCATION 1 2": 40.718661, "LOCATION 2 1": -73.998514, "BOROUGH": 1 }, "geometry": { "type": "Point", "coordinates": [ -73.998514, 40.718661 ] } },
{ "type": "Feature", "properties": { "SITE_NAME": "William O'Shea Campus", "SITE_NUMBER": "M0049", "VOTER_ENTRANCE": "100 West 77 Street", "HANDICAP_ENTRANCE": "W. 76 St. (Bet Columbus & Amsterdam Ave)", "STREET_NUMBER": "100", "STREET_NAME": "West 77 Street", "STREET_SUFFIX": null, "SITE_STATUS": "A", "CITY": "New York", "ZIP_CODE": "10024", "LOCATION 1 2": 40.780610, "LOCATION 2 1": -73.976578, "BOROUGH": 1 }, "geometry": { "type": "Point", "coordinates": [ -73.976578, 40.78061 ] } },
{ "type": "Feature", "properties": { "SITE_NAME": "PS 158", "SITE_NUMBER": "M0050", "VOTER_ENTRANCE": "1458 York Avenue", "HANDICAP_ENTRANCE": "East 78th Street", "STREET_NUMBER": "1458", "STREET_NAME": "York Avenue", "STREET_SUFFIX": null, "SITE_STATUS": "A", "CITY": "New York", "ZIP_CODE": "10075", "LOCATION 1 2": 40.770328, "LOCATION 2 1": -73.951105, "BOROUGH": 1 }, "geometry": { "type": "Point", "coordinates": [ -73.951105, 40.770328 ] } },
{ "type": "Feature", "properties": { "SITE_NAME": "PS 133", "SITE_NUMBER": "M0051", "VOTER_ENTRANCE": "2121 5 Avenue", "HANDICAP_ENTRANCE": "East 130th Street", "STREET_NUMBER": "2121", "STREET_NAME": "5 Avenue", "STREET_SUFFIX": null, "SITE_STATUS": "A", "CITY": "New York", "ZIP_CODE": "10037", "LOCATION 1 2": 40.809619, "LOCATION 2 1": -73.939818, "BOROUGH": 1 }, "geometry": { "type": "Point", "coordinates": [ -73.939818, 40.809619 ] } },
{ "type": "Feature", "properties": { "SITE_NAME": "Waterside Plaza", "SITE_NUMBER": "M0053", "VOTER_ENTRANCE": "15 Waterside Plaza", "HANDICAP_ENTRANCE": "15 Waterside Plaza", "STREET_NUMBER": "15", "STREET_NAME": "Waterside Plaza", "STREET_SUFFIX": null, "SITE_STATUS": "A", "CITY": "New York", "ZIP_CODE": "10010", "LOCATION 1 2": 40.737940, "LOCATION 2 1": -73.973347, "BOROUGH": 1 }, "geometry": { "type": "Point", "coordinates": [ -73.973347, 40.73794 ] } },
{ "type": "Feature", "properties": { "SITE_NAME": "Lincoln Towers II", "SITE_NUMBER": "M0057", "VOTER_ENTRANCE": "150 West End Avenue", "HANDICAP_ENTRANCE": "150 West End Avenue", "STREET_NUMBER": "150", "STREET_NAME": "West End Avenue", "STREET_SUFFIX": null, "SITE_STATUS": "A", "CITY": "New York", "ZIP_CODE": "10023", "LOCATION 1 2": 40.776589, "LOCATION 2 1": -73.986717, "BOROUGH": 1 }, "geometry": { "type": "Point", "coordinates": [ -73.986717, 40.776589 ] } },
{ "type": "Feature", "properties": { "SITE_NAME": "158th & Riverside Drive Housing Co. Inc.", "SITE_NUMBER": "M0063", "VOTER_ENTRANCE": "156-20 Riverside Drive West", "HANDICAP_ENTRANCE": "156-20 Riverside Drive West", "STREET_NUMBER": "156-20", "STREET_NAME": "Riverside Drive West", "STREET_SUFFIX": null, "SITE_STATUS": "A", "CITY": "New York", "ZIP_CODE": "10032", "LOCATION 1 2": 40.835947, "LOCATION 2 1": -73.948208, "BOROUGH": 1 }, "geometry": { "type": "Point", "coordinates": [ -73.948208, 40.835947 ] } },
{ "type": "Feature", "properties": { "SITE_NAME": "Jackie Robinson Complex", "SITE_NUMBER": "M0064", "VOTER_ENTRANCE": "1573 Madison Avenue", "HANDICAP_ENTRANCE": "Madison Avenue", "STREET_NUMBER": "1573", "STREET_NAME": "Madison Avenue", "STREET_SUFFIX": null, "SITE_STATUS": "A", "CITY": "New York", "ZIP_CODE": "10029", "LOCATION 1 2": 40.793647, "LOCATION 2 1": -73.949377, "BOROUGH": 1 }, "geometry": { "type": "Point", "coordinates": [ -73.949377, 40.793647 ] } },
{ "type": "Feature", "properties": { "SITE_NAME": "City As School", "SITE_NUMBER": "M0065", "VOTER_ENTRANCE": "16 Clarkson Street", "HANDICAP_ENTRANCE": "16 Clarkson Street", "STREET_NUMBER": "16", "STREET_NAME": "Clarkson Street", "STREET_SUFFIX": null, "SITE_STATUS": "A", "CITY": "New York", "ZIP_CODE": "10014", "LOCATION 1 2": 40.729361, "LOCATION 2 1": -74.006167, "BOROUGH": 1 }, "geometry": { "type": "Point", "coordinates": [ -74.006167, 40.729361 ] } },
{ "type": "Feature", "properties": { "SITE_NAME": "PS 7", "SITE_NUMBER": "M0067", "VOTER_ENTRANCE": "160 East 120 Street", "HANDICAP_ENTRANCE": "East 119th Street", "STREET_NUMBER": "160", "STREET_NAME": "East 120 Street", "STREET_SUFFIX": null, "SITE_STATUS": "A", "CITY": "New York", "ZIP_CODE": "10035", "LOCATION 1 2": 40.800925, "LOCATION 2 1": -73.939295, "BOROUGH": 1 }, "geometry": { "type": "Point", "coordinates": [ -73.939295, 40.800925 ] } },
{ "type": "Feature", "properties": { "SITE_NAME": "Lincoln Towers III", "SITE_NUMBER": "M0068", "VOTER_ENTRANCE": "160 West End Avenue", "HANDICAP_ENTRANCE": "160 West End Avenue", "STREET_NUMBER": "160", "STREET_NAME": "West End Avenue", "STREET_SUFFIX": null, "SITE_STATUS": "A", "CITY": "New York", "ZIP_CODE": "10023", "LOCATION 1 2": 40.775703, "LOCATION 2 1": -73.984100, "BOROUGH": 1 }, "geometry": { "type": "Point", "coordinates": [ -73.9841, 40.775703 ] } },
{ "type": "Feature", "properties": { "SITE_NAME": "1619 3rd Avenue", "SITE_NUMBER": "M0070", "VOTER_ENTRANCE": "1641 3 Avenue", "HANDICAP_ENTRANCE": "Entrance on East 90th Street", "STREET_NUMBER": "1619", "STREET_NAME": "3 Avenue", "STREET_SUFFIX": null, "SITE_STATUS": "A", "CITY": "New York", "ZIP_CODE": "10128", "LOCATION 1 2": 40.782047, "LOCATION 2 1": -73.951528, "BOROUGH": 1 }, "geometry": { "type": "Point", "coordinates": [ -73.951528, 40.782047 ] } },
{ "type": "Feature", "properties": { "SITE_NAME": "PS 163", "SITE_NUMBER": "M0072", "VOTER_ENTRANCE": "163 West 97 Street", "HANDICAP_ENTRANCE": "163 West 97 Street", "STREET_NUMBER": "163", "STREET_NAME": "West 97 Street", "STREET_SUFFIX": null, "SITE_STATUS": "A", "CITY": "New York", "ZIP_CODE": "10025", "LOCATION 1 2": 40.794341, "LOCATION 2 1": -73.968760, "BOROUGH": 1 }, "geometry": { "type": "Point", "coordinates": [ -73.96876, 40.794341 ] } },
{ "type": "Feature", "properties": { "SITE_NAME": "PS 20", "SITE_NUMBER": "M0073", "VOTER_ENTRANCE": "166 Essex Street", "HANDICAP_ENTRANCE": "Essex Street", "STREET_NUMBER": "166", "STREET_NAME": "Essex Street", "STREET_SUFFIX": null, "SITE_STATUS": "A", "CITY": "New York", "ZIP_CODE": "10002", "LOCATION 1 2": 40.721191, "LOCATION 2 1": -73.986743, "BOROUGH": 1 }, "geometry": { "type": "Point", "coordinates": [ -73.986743, 40.721191 ] } },
{ "type": "Feature", "properties": { "SITE_NAME": "PS 198", "SITE_NUMBER": "M0078", "VOTER_ENTRANCE": "1700 3 Avenue", "HANDICAP_ENTRANCE": "East 95th Street", "STREET_NUMBER": "1700", "STREET_NAME": "3 Avenue", "STREET_SUFFIX": null, "SITE_STATUS": "A", "CITY": "New York", "ZIP_CODE": "10128", "LOCATION 1 2": 40.784854, "LOCATION 2 1": -73.949681, "BOROUGH": 1 }, "geometry": { "type": "Point", "coordinates": [ -73.949681, 40.784854 ] } },
{ "type": "Feature", "properties": { "SITE_NAME": "Village View Housing", "SITE_NUMBER": "M0080", "VOTER_ENTRANCE": "175 East 4 Street", "HANDICAP_ENTRANCE": "175 East 4 Street", "STREET_NUMBER": "175", "STREET_NAME": "East 4 Street", "STREET_SUFFIX": null, "SITE_STATUS": "A", "CITY": "New York", "ZIP_CODE": "10009", "LOCATION 1 2": 40.724490, "LOCATION 2 1": -73.985143, "BOROUGH": 1 }, "geometry": { "type": "Point", "coordinates": [ -73.985143, 40.72449 ] } },
{ "type": "Feature", "properties": { "SITE_NAME": "PS 175", "SITE_NUMBER": "M0081", "VOTER_ENTRANCE": "175 West 134 Street", "HANDICAP_ENTRANCE": "175 West 134 Street", "STREET_NUMBER": "175", "STREET_NAME": "West 134 Street", "STREET_SUFFIX": null, "SITE_STATUS": "A", "CITY": "New York", "ZIP_CODE": "10030", "LOCATION 1 2": 40.814362, "LOCATION 2 1": -73.943354, "BOROUGH": 1 }, "geometry": { "type": "Point", "coordinates": [ -73.943354, 40.814362 ] } },
{ "type": "Feature", "properties": { "SITE_NAME": "PS 153", "SITE_NUMBER": "M0082", "VOTER_ENTRANCE": "1750 Amsterdam Avenue", "HANDICAP_ENTRANCE": "1750 Amsterdam Avenue", "STREET_NUMBER": "1750", "STREET_NAME": "Amsterdam Avenue", "STREET_SUFFIX": null, "SITE_STATUS": "A", "CITY": "New York", "ZIP_CODE": "10031", "LOCATION 1 2": 40.826333, "LOCATION 2 1": -73.946909, "BOROUGH": 1 }, "geometry": { "type": "Point", "coordinates": [ -73.946909, 40.826333 ] } },
{ "type": "Feature", "properties": { "SITE_NAME": "Knickerbocker Plaza", "SITE_NUMBER": "M0083", "VOTER_ENTRANCE": "1751 2 Avenue", "HANDICAP_ENTRANCE": "1751 2 Avenue", "STREET_NUMBER": "1751", "STREET_NAME": "2nd Avenue", "STREET_SUFFIX": null, "SITE_STATUS": "A", "CITY": "New York", "ZIP_CODE": "10128", "LOCATION 1 2": 40.781224, "LOCATION 2 1": -73.949401, "BOROUGH": 1 }, "geometry": { "type": "Point", "coordinates": [ -73.949401, 40.781224 ] } },
{ "type": "Feature", "properties": { "SITE_NAME": "PS 57", "SITE_NUMBER": "M0084", "VOTER_ENTRANCE": "176 East 115 Street", "HANDICAP_ENTRANCE": "176 East 115 Street", "STREET_NUMBER": "176", "STREET_NAME": "East 115 Street", "STREET_SUFFIX": null, "SITE_STATUS": "A", "CITY": "New York", "ZIP_CODE": "10029", "LOCATION 1 2": 40.797519, "LOCATION 2 1": -73.941298, "BOROUGH": 1 }, "geometry": { "type": "Point", "coordinates": [ -73.941298, 40.797519 ] } },
{ "type": "Feature", "properties": { "SITE_NAME": "Stanley Isaacs Ctr", "SITE_NUMBER": "M0086", "VOTER_ENTRANCE": "415 East 93 Street", "HANDICAP_ENTRANCE": "415 East 93 Street", "STREET_NUMBER": "415", "STREET_NAME": "East 93 Street", "STREET_SUFFIX": null, "SITE_STATUS": "A", "CITY": "New York", "ZIP_CODE": "10128", "LOCATION 1 2": 40.780954, "LOCATION 2 1": -73.944978, "BOROUGH": 1 }, "geometry": { "type": "Point", "coordinates": [ -73.944978, 40.780954 ] } },
{ "type": "Feature", "properties": { "SITE_NAME": "Mott Street Sr Ctr", "SITE_NUMBER": "M0088", "VOTER_ENTRANCE": "180 Mott Street", "HANDICAP_ENTRANCE": "180 Mott Street", "STREET_NUMBER": "180", "STREET_NAME": "Mott Street", "STREET_SUFFIX": null, "SITE_STATUS": "A", "CITY": "New York", "ZIP_CODE": "10012", "LOCATION 1 2": 40.720514, "LOCATION 2 1": -73.995803, "BOROUGH": 1 }, "geometry": { "type": "Point", "coordinates": [ -73.995803, 40.720514 ] } },
{ "type": "Feature", "properties": { "SITE_NAME": "Hamilton Hgts Terrace", "SITE_NUMBER": "M0091", "VOTER_ENTRANCE": "1833 Amsterdam Ave", "HANDICAP_ENTRANCE": "1833 Amsterdam Ave", "STREET_NUMBER": "1833", "STREET_NAME": "Amsterdam Avenue", "STREET_SUFFIX": null, "SITE_STATUS": "A", "CITY": "New York", "ZIP_CODE": "10031", "LOCATION 1 2": 40.828816, "LOCATION 2 1": -73.944889, "BOROUGH": 1 }, "geometry": { "type": "Point", "coordinates": [ -73.944889, 40.828816 ] } },
{ "type": "Feature", "properties": { "SITE_NAME": "Lincoln Towers V", "SITE_NUMBER": "M0094", "VOTER_ENTRANCE": "185 West End Avenue", "HANDICAP_ENTRANCE": "185 West End Avenue", "STREET_NUMBER": "185", "STREET_NAME": "West End Avenue", "STREET_SUFFIX": null, "SITE_STATUS": "A", "CITY": "New York", "ZIP_CODE": "10023", "LOCATION 1 2": 40.777308, "LOCATION 2 1": -73.986401, "BOROUGH": 1 }, "geometry": { "type": "Point", "coordinates": [ -73.986401, 40.777308 ] } },
{ "type": "Feature", "properties": { "SITE_NAME": "Church Heavenly Rest", "SITE_NUMBER": "M0100", "VOTER_ENTRANCE": "2 East 90 Street", "HANDICAP_ENTRANCE": "2 East 90 Street", "STREET_NUMBER": "2", "STREET_NAME": "East 90 Street", "STREET_SUFFIX": null, "SITE_STATUS": "A", "CITY": "New York", "ZIP_CODE": "10128", "LOCATION 1 2": 40.783999, "LOCATION 2 1": -73.958499, "BOROUGH": 1 }, "geometry": { "type": "Point", "coordinates": [ -73.958499, 40.783999 ] } },
{ "type": "Feature", "properties": { "SITE_NAME": "Harlem Renaissance HS", "SITE_NUMBER": "M0105", "VOTER_ENTRANCE": "22 East 128 Street", "HANDICAP_ENTRANCE": "22 East 128th Street", "STREET_NUMBER": "22", "STREET_NAME": "East 128 Street", "STREET_SUFFIX": null, "SITE_STATUS": "A", "CITY": "New York", "ZIP_CODE": "10035", "LOCATION 1 2": 40.807983, "LOCATION 2 1": -73.940215, "BOROUGH": 1 }, "geometry": { "type": "Point", "coordinates": [ -73.940215, 40.807983 ] } },
{ "type": "Feature", "properties": { "SITE_NAME": "Washington Heights Academy (M366)", "SITE_NUMBER": "M0106", "VOTER_ENTRANCE": "202 Sherman Avenue", "HANDICAP_ENTRANCE": "202 Sherman Avenue", "STREET_NUMBER": "202", "STREET_NAME": "Sherman Avenue", "STREET_SUFFIX": null, "SITE_STATUS": "A", "CITY": "New York", "ZIP_CODE": "10034", "LOCATION 1 2": 40.865436, "LOCATION 2 1": -73.921180, "BOROUGH": 1 }, "geometry": { "type": "Point", "coordinates": [ -73.92118, 40.865436 ] } },
{ "type": "Feature", "properties": { "SITE_NAME": "Lincoln Towers VI", "SITE_NUMBER": "M0107", "VOTER_ENTRANCE": "205 West End Avenue", "HANDICAP_ENTRANCE": "205 West End Avenue", "STREET_NUMBER": "205", "STREET_NAME": "West End Avenue", "STREET_SUFFIX": null, "SITE_STATUS": "A", "CITY": "New York", "ZIP_CODE": "10023", "LOCATION 1 2": 40.778006, "LOCATION 2 1": -73.985892, "BOROUGH": 1 }, "geometry": { "type": "Point", "coordinates": [ -73.985892, 40.778006 ] } },
{ "type": "Feature", "properties": { "SITE_NAME": "1199 Housing", "SITE_NUMBER": "M0108", "VOTER_ENTRANCE": "2070 1 Avenue", "HANDICAP_ENTRANCE": "2070 1 Avenue", "STREET_NUMBER": "2070", "STREET_NAME": "1 Avenue", "STREET_SUFFIX": null, "SITE_STATUS": "A", "CITY": "New York", "ZIP_CODE": "10029", "LOCATION 1 2": 40.790369, "LOCATION 2 1": -73.939428, "BOROUGH": 1 }, "geometry": { "type": "Point", "coordinates": [ -73.939428, 40.790369 ] } },
{ "type": "Feature", "properties": { "SITE_NAME": "PS 116", "SITE_NUMBER": "M0111", "VOTER_ENTRANCE": "210 East 33 Street", "HANDICAP_ENTRANCE": "East 32nd Street", "STREET_NUMBER": "210", "STREET_NAME": "East 33 Street", "STREET_SUFFIX": null, "SITE_STATUS": "A", "CITY": "New York", "ZIP_CODE": "10016", "LOCATION 1 2": 40.744870, "LOCATION 2 1": -73.978340, "BOROUGH": 1 }, "geometry": { "type": "Point", "coordinates": [ -73.97834, 40.74487 ] } },
{ "type": "Feature", "properties": { "SITE_NAME": "1199 Housing III", "SITE_NUMBER": "M0114", "VOTER_ENTRANCE": "2130 1 Avenue", "HANDICAP_ENTRANCE": "2130 1 Avenue", "STREET_NUMBER": "2130", "STREET_NAME": "1 Avenue", "STREET_SUFFIX": null, "SITE_STATUS": "A", "CITY": "New York", "ZIP_CODE": "10029", "LOCATION 1 2": 40.791902, "LOCATION 2 1": -73.938296, "BOROUGH": 1 }, "geometry": { "type": "Point", "coordinates": [ -73.938296, 40.791902 ] } },
{ "type": "Feature", "properties": { "SITE_NAME": "Drew Hamilton Houses", "SITE_NUMBER": "M0121", "VOTER_ENTRANCE": "220 WEST  143 STREET", "HANDICAP_ENTRANCE": "220 WEST  143 STREET", "STREET_NUMBER": "220", "STREET_NAME": "West 143 Street", "STREET_SUFFIX": null, "SITE_STATUS": "A", "CITY": "New York", "ZIP_CODE": "10030", "LOCATION 1 2": 40.820572, "LOCATION 2 1": -73.940762, "BOROUGH": 1 }, "geometry": { "type": "Point", "coordinates": [ -73.940762, 40.820572 ] } },
{ "type": "Feature", "properties": { "SITE_NAME": "Riverton Apts", "SITE_NUMBER": "M0122", "VOTER_ENTRANCE": "2200 Madison Avenue", "HANDICAP_ENTRANCE": "Madison Avenue", "STREET_NUMBER": "2200", "STREET_NAME": "Madison Avenue", "STREET_SUFFIX": null, "SITE_STATUS": "A", "CITY": "New York", "ZIP_CODE": "10037", "LOCATION 1 2": 40.812735, "LOCATION 2 1": -73.935874, "BOROUGH": 1 }, "geometry": { "type": "Point", "coordinates": [ -73.935874, 40.812735 ] } },
{ "type": "Feature", "properties": { "SITE_NAME": "PS 47(Sch for Hearing Impaired)", "SITE_NUMBER": "M0128", "VOTER_ENTRANCE": "225 East 23 Street", "HANDICAP_ENTRANCE": "23rd Street", "STREET_NUMBER": "225", "STREET_NAME": "East 23 Street", "STREET_SUFFIX": null, "SITE_STATUS": "A", "CITY": "New York", "ZIP_CODE": "10010", "LOCATION 1 2": 40.738639, "LOCATION 2 1": -73.982507, "BOROUGH": 1 }, "geometry": { "type": "Point", "coordinates": [ -73.982507, 40.738639 ] } },
{ "type": "Feature", "properties": { "SITE_NAME": "Robert Wagner Middle School", "SITE_NUMBER": "M0129", "VOTER_ENTRANCE": "225 EAST 75 Street", "HANDICAP_ENTRANCE": "225 EAST 75 Street", "STREET_NUMBER": "225", "STREET_NAME": "East 75 Street", "STREET_SUFFIX": null, "SITE_STATUS": "A", "CITY": "New York", "ZIP_CODE": "10021", "LOCATION 1 2": 40.772051, "LOCATION 2 1": -73.958250, "BOROUGH": 1 }, "geometry": { "type": "Point", "coordinates": [ -73.95825, 40.772051 ] } },
{ "type": "Feature", "properties": { "SITE_NAME": "Riverbend Housing", "SITE_NUMBER": "M0132", "VOTER_ENTRANCE": "2301 5 Avenue", "HANDICAP_ENTRANCE": "Madison Avenue", "STREET_NUMBER": "2301", "STREET_NAME": "5 Avenue", "STREET_SUFFIX": null, "SITE_STATUS": "A", "CITY": "New York", "ZIP_CODE": "10037", "LOCATION 1 2": 40.815368, "LOCATION 2 1": -73.935618, "BOROUGH": 1 }, "geometry": { "type": "Point", "coordinates": [ -73.935618, 40.815368 ] } },
{ "type": "Feature", "properties": { "SITE_NAME": "PS 38 or 121", "SITE_NUMBER": "M0134", "VOTER_ENTRANCE": "232 East 103 Street", "HANDICAP_ENTRANCE": "East 102nd Street", "STREET_NUMBER": "232", "STREET_NAME": "East 103 Street", "STREET_SUFFIX": null, "SITE_STATUS": "A", "CITY": "New York", "ZIP_CODE": "10029", "LOCATION 1 2": 40.788514, "LOCATION 2 1": -73.944502, "BOROUGH": 1 }, "geometry": { "type": "Point", "coordinates": [ -73.944502, 40.788514 ] } },
{ "type": "Feature", "properties": { "SITE_NAME": "PS 165", "SITE_NUMBER": "M0135", "VOTER_ENTRANCE": "234 West 109 Street", "HANDICAP_ENTRANCE": "West 109th Street", "STREET_NUMBER": "234", "STREET_NAME": "West 109 Street", "STREET_SUFFIX": null, "SITE_STATUS": "A", "CITY": "New York", "ZIP_CODE": "10025", "LOCATION 1 2": 40.802724, "LOCATION 2 1": -73.965326, "BOROUGH": 1 }, "geometry": { "type": "Point", "coordinates": [ -73.965326, 40.802724 ] } },
{ "type": "Feature", "properties": { "SITE_NAME": "PS\/JHS 117", "SITE_NUMBER": "M0140", "VOTER_ENTRANCE": "240 East 109 Street", "HANDICAP_ENTRANCE": "2nd Ave", "STREET_NUMBER": "240", "STREET_NAME": "East 109 Street", "STREET_SUFFIX": null, "SITE_STATUS": "A", "CITY": "New York", "ZIP_CODE": "10029", "LOCATION 1 2": 40.793035, "LOCATION 2 1": -73.942389, "BOROUGH": 1 }, "geometry": { "type": "Point", "coordinates": [ -73.942389, 40.793035 ] } },
{ "type": "Feature", "properties": { "SITE_NAME": "PS 194", "SITE_NUMBER": "M0142", "VOTER_ENTRANCE": "244 West 144 Street", "HANDICAP_ENTRANCE": "West 143rd Street", "STREET_NUMBER": "244", "STREET_NAME": "West 144 Street", "STREET_SUFFIX": null, "SITE_STATUS": "A", "CITY": "New York", "ZIP_CODE": "10030", "LOCATION 1 2": 40.821464, "LOCATION 2 1": -73.940936, "BOROUGH": 1 }, "geometry": { "type": "Point", "coordinates": [ -73.940936, 40.821464 ] } },
{ "type": "Feature", "properties": { "SITE_NAME": "PS 154", "SITE_NUMBER": "M0143", "VOTER_ENTRANCE": "250 West 127 Street", "HANDICAP_ENTRANCE": "West 126th Street", "STREET_NUMBER": "250", "STREET_NAME": "West 127 Street", "STREET_SUFFIX": null, "SITE_STATUS": "A", "CITY": "New York", "ZIP_CODE": "10027", "LOCATION 1 2": 40.810845, "LOCATION 2 1": -73.948908, "BOROUGH": 1 }, "geometry": { "type": "Point", "coordinates": [ -73.948908, 40.810845 ] } },
{ "type": "Feature", "properties": { "SITE_NAME": "Lincoln Square Neighborhood Ctr", "SITE_NUMBER": "M0144", "VOTER_ENTRANCE": "250 West 65 Street", "HANDICAP_ENTRANCE": "250 West 65 Street", "STREET_NUMBER": "250", "STREET_NAME": "West 65 Street", "STREET_SUFFIX": null, "SITE_STATUS": "A", "CITY": "New York", "ZIP_CODE": "10023", "LOCATION 1 2": 40.774756, "LOCATION 2 1": -73.986456, "BOROUGH": 1 }, "geometry": { "type": "Point", "coordinates": [ -73.986456, 40.774756 ] } },
{ "type": "Feature", "properties": { "SITE_NAME": "PS 189", "SITE_NUMBER": "M0145", "VOTER_ENTRANCE": "2580 Amsterdam Avenue", "HANDICAP_ENTRANCE": "West 189 Street", "STREET_NUMBER": "2580", "STREET_NAME": "Amsterdam Avenue", "STREET_SUFFIX": null, "SITE_STATUS": "A", "CITY": "New York", "ZIP_CODE": "10040", "LOCATION 1 2": 40.852595, "LOCATION 2 1": -73.927725, "BOROUGH": 1 }, "geometry": { "type": "Point", "coordinates": [ -73.927725, 40.852595 ] } },
{ "type": "Feature", "properties": { "SITE_NAME": "PS 199", "SITE_NUMBER": "M0152", "VOTER_ENTRANCE": "270 West 70 Street", "HANDICAP_ENTRANCE": "West 70th Street", "STREET_NUMBER": "270", "STREET_NAME": "West 70 Street", "STREET_SUFFIX": null, "SITE_STATUS": "A", "CITY": "New York", "ZIP_CODE": "10023", "LOCATION 1 2": 40.778068, "LOCATION 2 1": -73.984631, "BOROUGH": 1 }, "geometry": { "type": "Point", "coordinates": [ -73.984631, 40.778068 ] } },
{ "type": "Feature", "properties": { "SITE_NAME": "PS 110", "SITE_NUMBER": "M0154", "VOTER_ENTRANCE": "285 Delancey Street", "HANDICAP_ENTRANCE": "285 Delancey Street", "STREET_NUMBER": "285", "STREET_NAME": "Delancey Street", "STREET_SUFFIX": null, "SITE_STATUS": "A", "CITY": "New York", "ZIP_CODE": "10002", "LOCATION 1 2": 40.715345, "LOCATION 2 1": -73.979995, "BOROUGH": 1 }, "geometry": { "type": "Point", "coordinates": [ -73.979995, 40.715345 ] } },
{ "type": "Feature", "properties": { "SITE_NAME": "PS 33", "SITE_NUMBER": "M0155", "VOTER_ENTRANCE": "281 9 Avenue", "HANDICAP_ENTRANCE": "281 9 Avenue", "STREET_NUMBER": "281", "STREET_NAME": "9 Avenue", "STREET_SUFFIX": null, "SITE_STATUS": "A", "CITY": "New York", "ZIP_CODE": "10001", "LOCATION 1 2": 40.748743, "LOCATION 2 1": -73.999786, "BOROUGH": 1 }, "geometry": { "type": "Point", "coordinates": [ -73.999786, 40.748743 ] } },
{ "type": "Feature", "properties": { "SITE_NAME": "Stuyvesant Town IV", "SITE_NUMBER": "M0156", "VOTER_ENTRANCE": "283 Avenue C", "HANDICAP_ENTRANCE": "283 Avenue C", "STREET_NUMBER": "283", "STREET_NAME": "Avenue C", "STREET_SUFFIX": null, "SITE_STATUS": "A", "CITY": "New York", "ZIP_CODE": "10009", "LOCATION 1 2": 40.730894, "LOCATION 2 1": -73.975693, "BOROUGH": 1 }, "geometry": { "type": "Point", "coordinates": [ -73.975693, 40.730894 ] } },
{ "type": "Feature", "properties": { "SITE_NAME": "Polo Ground Sr Ctr", "SITE_NUMBER": "M0159", "VOTER_ENTRANCE": "2965 8 Avenue", "HANDICAP_ENTRANCE": "2965 8 Avenue", "STREET_NUMBER": "2965", "STREET_NAME": "8 Avenue", "STREET_SUFFIX": null, "SITE_STATUS": "A", "CITY": "New York", "ZIP_CODE": "10039", "LOCATION 1 2": 40.830292, "LOCATION 2 1": -73.936522, "BOROUGH": 1 }, "geometry": { "type": "Point", "coordinates": [ -73.936522, 40.830292 ] } },
{ "type": "Feature", "properties": { "SITE_NAME": "PS 46", "SITE_NUMBER": "M0160", "VOTER_ENTRANCE": "2987 8 Avenue", "HANDICAP_ENTRANCE": "8th Avenue", "STREET_NUMBER": "2987", "STREET_NAME": "8 Avenue", "STREET_SUFFIX": null, "SITE_STATUS": "A", "CITY": "New York", "ZIP_CODE": "10039", "LOCATION 1 2": 40.831289, "LOCATION 2 1": -73.935795, "BOROUGH": 1 }, "geometry": { "type": "Point", "coordinates": [ -73.935795, 40.831289 ] } },
{ "type": "Feature", "properties": { "SITE_NAME": "Lincoln Guild Housing", "SITE_NUMBER": "M0166", "VOTER_ENTRANCE": "303 West 66 Street", "HANDICAP_ENTRANCE": "303 West 66 Street", "STREET_NUMBER": "303", "STREET_NAME": "West 66 Street", "STREET_SUFFIX": null, "SITE_STATUS": "A", "CITY": "New York", "ZIP_CODE": "10023", "LOCATION 1 2": 40.776118, "LOCATION 2 1": -73.987308, "BOROUGH": 1 }, "geometry": { "type": "Point", "coordinates": [ -73.987308, 40.776118 ] } },
{ "type": "Feature", "properties": { "SITE_NAME": "PS 173", "SITE_NUMBER": "M0169", "VOTER_ENTRANCE": "306 Ft Washington Avenue", "HANDICAP_ENTRANCE": "West 174th Street", "STREET_NUMBER": "306", "STREET_NAME": "Ft Washington Avenue", "STREET_SUFFIX": null, "SITE_STATUS": "A", "CITY": "New York", "ZIP_CODE": "10033", "LOCATION 1 2": 40.845672, "LOCATION 2 1": -73.940279, "BOROUGH": 1 }, "geometry": { "type": "Point", "coordinates": [ -73.940279, 40.845672 ] } },
{ "type": "Feature", "properties": { "SITE_NAME": "PS 290 (Manh New School)", "SITE_NUMBER": "M0171", "VOTER_ENTRANCE": "311 East 82 Street", "HANDICAP_ENTRANCE": "East 82nd Street", "STREET_NUMBER": "311", "STREET_NAME": "East 82 Street", "STREET_SUFFIX": null, "SITE_STATUS": "A", "CITY": "New York", "ZIP_CODE": "10028", "LOCATION 1 2": 40.775216, "LOCATION 2 1": -73.953268, "BOROUGH": 1 }, "geometry": { "type": "Point", "coordinates": [ -73.953268, 40.775216 ] } },
{ "type": "Feature", "properties": { "SITE_NAME": "PS 134", "SITE_NUMBER": "M0172", "VOTER_ENTRANCE": "293 East Broadway", "HANDICAP_ENTRANCE": "293 East Broadway", "STREET_NUMBER": "293", "STREET_NAME": "East Broadway", "STREET_SUFFIX": null, "SITE_STATUS": "A", "CITY": "New York", "ZIP_CODE": "10002", "LOCATION 1 2": 40.714465, "LOCATION 2 1": -73.984346, "BOROUGH": 1 }, "geometry": { "type": "Point", "coordinates": [ -73.984346, 40.714465 ] } },
{ "type": "Feature", "properties": { "SITE_NAME": "PS 102", "SITE_NUMBER": "M0173", "VOTER_ENTRANCE": "315 East 113 Street", "HANDICAP_ENTRANCE": "315 East 113 Street", "STREET_NUMBER": "315", "STREET_NAME": "East 113 Street", "STREET_SUFFIX": null, "SITE_STATUS": "A", "CITY": "New York", "ZIP_CODE": "10029", "LOCATION 1 2": 40.795030, "LOCATION 2 1": -73.938915, "BOROUGH": 1 }, "geometry": { "type": "Point", "coordinates": [ -73.938915, 40.79503 ] } },
{ "type": "Feature", "properties": { "SITE_NAME": "Gen Grant Houses IV", "SITE_NUMBER": "M0175", "VOTER_ENTRANCE": "3150 Broadway", "HANDICAP_ENTRANCE": "3150 Broadway", "STREET_NUMBER": "3150", "STREET_NAME": "Broadway", "STREET_SUFFIX": null, "SITE_STATUS": "A", "CITY": "New York", "ZIP_CODE": "10027", "LOCATION 1 2": 40.814085, "LOCATION 2 1": -73.959206, "BOROUGH": 1 }, "geometry": { "type": "Point", "coordinates": [ -73.959206, 40.814085 ] } },
{ "type": "Feature", "properties": { "SITE_NAME": "Tweed Court", "SITE_NUMBER": "M0187", "VOTER_ENTRANCE": "52 CHAMBERS STREET", "HANDICAP_ENTRANCE": "52 CHAMBERS STREET", "STREET_NUMBER": "52", "STREET_NAME": "Chambers Street", "STREET_SUFFIX": null, "SITE_STATUS": "A", "CITY": "New York", "ZIP_CODE": "10007", "LOCATION 1 2": 40.713493, "LOCATION 2 1": -74.005019, "BOROUGH": 1 }, "geometry": { "type": "Point", "coordinates": [ -74.005019, 40.713493 ] } },
{ "type": "Feature", "properties": { "SITE_NAME": "PS 15", "SITE_NUMBER": "M0191", "VOTER_ENTRANCE": "E 5th St schoolyard (Bet Avenue C and D)", "HANDICAP_ENTRANCE": "E 5th St schoolyard (Bet Avenue C and D)", "STREET_NUMBER": "333", "STREET_NAME": "East 4 Street", "STREET_SUFFIX": null, "SITE_STATUS": "A", "CITY": "New York", "ZIP_CODE": "10009", "LOCATION 1 2": 40.721999, "LOCATION 2 1": -73.979315, "BOROUGH": 1 }, "geometry": { "type": "Point", "coordinates": [ -73.979315, 40.721999 ] } },
{ "type": "Feature", "properties": { "SITE_NAME": "IS 70", "SITE_NUMBER": "M0192", "VOTER_ENTRANCE": "333 West 17 Street", "HANDICAP_ENTRANCE": "333 West 17 Street", "STREET_NUMBER": "333", "STREET_NAME": "West 17 Street", "STREET_SUFFIX": null, "SITE_STATUS": "A", "CITY": "New York", "ZIP_CODE": "10011", "LOCATION 1 2": 40.742131, "LOCATION 2 1": -74.002045, "BOROUGH": 1 }, "geometry": { "type": "Point", "coordinates": [ -74.002045, 40.742131 ] } },
{ "type": "Feature", "properties": { "SITE_NAME": "Seward Park IV", "SITE_NUMBER": "M0205", "VOTER_ENTRANCE": "385 Grand Street", "HANDICAP_ENTRANCE": "385 Grand Street", "STREET_NUMBER": "385", "STREET_NAME": "Grand Street", "STREET_SUFFIX": null, "SITE_STATUS": "A", "CITY": "New York", "ZIP_CODE": "10002", "LOCATION 1 2": 40.716006, "LOCATION 2 1": -73.987134, "BOROUGH": 1 }, "geometry": { "type": "Point", "coordinates": [ -73.987134, 40.716006 ] } },
{ "type": "Feature", "properties": { "SITE_NAME": "Manhattan Plaza L.P.", "SITE_NUMBER": "M0212", "VOTER_ENTRANCE": "400 West 43 Street", "HANDICAP_ENTRANCE": "400 West 43 Street", "STREET_NUMBER": "400", "STREET_NAME": "West 43 Street", "STREET_SUFFIX": null, "SITE_STATUS": "A", "CITY": "New York", "ZIP_CODE": "10036", "LOCATION 1 2": 40.759079, "LOCATION 2 1": -73.992278, "BOROUGH": 1 }, "geometry": { "type": "Point", "coordinates": [ -73.992278, 40.759079 ] } },
{ "type": "Feature", "properties": { "SITE_NAME": "PS 149", "SITE_NUMBER": "M0215", "VOTER_ENTRANCE": "41 West 117 Street", "HANDICAP_ENTRANCE": "Lenox Avenue", "STREET_NUMBER": "41", "STREET_NAME": "West 117 Street", "STREET_SUFFIX": null, "SITE_STATUS": "A", "CITY": "New York", "ZIP_CODE": "10026", "LOCATION 1 2": 40.802142, "LOCATION 2 1": -73.947505, "BOROUGH": 1 }, "geometry": { "type": "Point", "coordinates": [ -73.947505, 40.802142 ] } },
{ "type": "Feature", "properties": { "SITE_NAME": "Columbia University Houses", "SITE_NUMBER": "M0216", "VOTER_ENTRANCE": "410 Riverside Drive", "HANDICAP_ENTRANCE": "410 Riverside Drive", "STREET_NUMBER": "410", "STREET_NAME": "Riverside Drive", "STREET_SUFFIX": null, "SITE_STATUS": "A", "CITY": "New York", "ZIP_CODE": "10025", "LOCATION 1 2": 40.806910, "LOCATION 2 1": -73.967023, "BOROUGH": 1 }, "geometry": { "type": "Point", "coordinates": [ -73.967023, 40.80691 ] } },
{ "type": "Feature", "properties": { "SITE_NAME": "PS 183", "SITE_NUMBER": "M0218", "VOTER_ENTRANCE": "419 East 66 Street", "HANDICAP_ENTRANCE": "408 East 67 Street", "STREET_NUMBER": "419", "STREET_NAME": "East 66 Street", "STREET_SUFFIX": null, "SITE_STATUS": "A", "CITY": "New York", "ZIP_CODE": "10065", "LOCATION 1 2": 40.763850, "LOCATION 2 1": -73.958260, "BOROUGH": 1 }, "geometry": { "type": "Point", "coordinates": [ -73.95826, 40.76385 ] } },
{ "type": "Feature", "properties": { "SITE_NAME": "PS 146", "SITE_NUMBER": "M0223", "VOTER_ENTRANCE": "421 East 106 Street", "HANDICAP_ENTRANCE": "1st Avenue", "STREET_NUMBER": "421", "STREET_NAME": "East 106 Street", "STREET_SUFFIX": null, "SITE_STATUS": "A", "CITY": "New York", "ZIP_CODE": "10029", "LOCATION 1 2": 40.789475, "LOCATION 2 1": -73.939526, "BOROUGH": 1 }, "geometry": { "type": "Point", "coordinates": [ -73.939526, 40.789475 ] } },
{ "type": "Feature", "properties": { "SITE_NAME": "Yorkville Community School", "SITE_NUMBER": "M0224", "VOTER_ENTRANCE": "421 East 88 Street", "HANDICAP_ENTRANCE": "421 East 88 Street", "STREET_NUMBER": "421", "STREET_NAME": "East 88 Street", "STREET_SUFFIX": null, "SITE_STATUS": "A", "CITY": "New York", "ZIP_CODE": "10128", "LOCATION 1 2": 40.778022, "LOCATION 2 1": -73.947868, "BOROUGH": 1 }, "geometry": { "type": "Point", "coordinates": [ -73.947868, 40.778022 ] } },
{ "type": "Feature", "properties": { "SITE_NAME": "PS 111", "SITE_NUMBER": "M0231", "VOTER_ENTRANCE": "440 West 53  Street", "HANDICAP_ENTRANCE": "West 52nd Street", "STREET_NUMBER": "440", "STREET_NAME": "West 53 Street", "STREET_SUFFIX": null, "SITE_STATUS": "A", "CITY": "New York", "ZIP_CODE": "10019", "LOCATION 1 2": 40.765802, "LOCATION 2 1": -73.988800, "BOROUGH": 1 }, "geometry": { "type": "Point", "coordinates": [ -73.9888, 40.765802 ] } },
{ "type": "Feature", "properties": { "SITE_NAME": "PS 188 Or 196", "SITE_NUMBER": "M0232", "VOTER_ENTRANCE": "442 East Houston Street", "HANDICAP_ENTRANCE": "East 3rd Street", "STREET_NUMBER": "442", "STREET_NAME": "East Houston Street", "STREET_SUFFIX": null, "SITE_STATUS": "A", "CITY": "New York", "ZIP_CODE": "10002", "LOCATION 1 2": 40.719627, "LOCATION 2 1": -73.977658, "BOROUGH": 1 }, "geometry": { "type": "Point", "coordinates": [ -73.977658, 40.719627 ] } },
{ "type": "Feature", "properties": { "SITE_NAME": "PS 6", "SITE_NUMBER": "M0234", "VOTER_ENTRANCE": "45 East 81 Street", "HANDICAP_ENTRANCE": "East 82nd Street", "STREET_NUMBER": "45", "STREET_NAME": "East 81 Street", "STREET_SUFFIX": null, "SITE_STATUS": "A", "CITY": "New York", "ZIP_CODE": "10028", "LOCATION 1 2": 40.777540, "LOCATION 2 1": -73.960750, "BOROUGH": 1 }, "geometry": { "type": "Point", "coordinates": [ -73.96075, 40.77754 ] } },
{ "type": "Feature", "properties": { "SITE_NAME": "East River Housing III", "SITE_NUMBER": "M0236", "VOTER_ENTRANCE": "457 FDR Drive", "HANDICAP_ENTRANCE": "Grand Street Corner (457 FDR Drive)", "STREET_NUMBER": "457", "STREET_NAME": "FDR DRIVE", "STREET_SUFFIX": null, "SITE_STATUS": "A", "CITY": "New York", "ZIP_CODE": "10002", "LOCATION 1 2": 40.713195, "LOCATION 2 1": -73.977616, "BOROUGH": 1 }, "geometry": { "type": "Point", "coordinates": [ -73.977616, 40.713195 ] } },
{ "type": "Feature", "properties": { "SITE_NAME": "PS 53 Or 811", "SITE_NUMBER": "M0237", "VOTER_ENTRANCE": "466 West End Avenue", "HANDICAP_ENTRANCE": "West 82nd Street", "STREET_NUMBER": "466", "STREET_NAME": "West End Avenue", "STREET_SUFFIX": null, "SITE_STATUS": "A", "CITY": "New York", "ZIP_CODE": "10024", "LOCATION 1 2": 40.786500, "LOCATION 2 1": -73.979489, "BOROUGH": 1 }, "geometry": { "type": "Point", "coordinates": [ -73.979489, 40.7865 ] } },
{ "type": "Feature", "properties": { "SITE_NAME": "East River Housing IV", "SITE_NUMBER": "M0239", "VOTER_ENTRANCE": "477 FDR Drive", "HANDICAP_ENTRANCE": "Grand Street Corner (477 FDR Drive)", "STREET_NUMBER": "477", "STREET_NAME": "Fdr Drive", "STREET_SUFFIX": null, "SITE_STATUS": "A", "CITY": "New York", "ZIP_CODE": "10002", "LOCATION 1 2": 40.713869, "LOCATION 2 1": -73.977339, "BOROUGH": 1 }, "geometry": { "type": "Point", "coordinates": [ -73.977339, 40.713869 ] } },
{ "type": "Feature", "properties": { "SITE_NAME": "PS 28", "SITE_NUMBER": "M0240", "VOTER_ENTRANCE": "475 West 155 Street", "HANDICAP_ENTRANCE": "St. Nicholas Avenue", "STREET_NUMBER": "475", "STREET_NAME": "West 155 Street", "STREET_SUFFIX": null, "SITE_STATUS": "A", "CITY": "New York", "ZIP_CODE": "10032", "LOCATION 1 2": 40.831565, "LOCATION 2 1": -73.942628, "BOROUGH": 1 }, "geometry": { "type": "Point", "coordinates": [ -73.942628, 40.831565 ] } },
{ "type": "Feature", "properties": { "SITE_NAME": "St Margaret's House", "SITE_NUMBER": "M0244", "VOTER_ENTRANCE": "49 Fulton Street", "HANDICAP_ENTRANCE": "49 Fulton Street", "STREET_NUMBER": "49", "STREET_NAME": "Fulton Street", "STREET_SUFFIX": null, "SITE_STATUS": "A", "CITY": "New York", "ZIP_CODE": "10038", "LOCATION 1 2": 40.708221, "LOCATION 2 1": -74.004536, "BOROUGH": 1 }, "geometry": { "type": "Point", "coordinates": [ -74.004536, 40.708221 ] } },
{ "type": "Feature", "properties": { "SITE_NAME": "PS 3", "SITE_NUMBER": "M0245", "VOTER_ENTRANCE": "490 Hudson Street", "HANDICAP_ENTRANCE": "490 Hudson Street", "STREET_NUMBER": "490", "STREET_NAME": "Hudson Street", "STREET_SUFFIX": null, "SITE_STATUS": "A", "CITY": "New York", "ZIP_CODE": "10014", "LOCATION 1 2": 40.732572, "LOCATION 2 1": -74.006384, "BOROUGH": 1 }, "geometry": { "type": "Point", "coordinates": [ -74.006384, 40.732572 ] } },
{ "type": "Feature", "properties": { "SITE_NAME": "PS 192", "SITE_NUMBER": "M0248", "VOTER_ENTRANCE": "500 West 138 Street", "HANDICAP_ENTRANCE": "West 136th Street", "STREET_NUMBER": "500", "STREET_NAME": "West 138 Street", "STREET_SUFFIX": null, "SITE_STATUS": "A", "CITY": "New York", "ZIP_CODE": "10031", "LOCATION 1 2": 40.821362, "LOCATION 2 1": -73.952318, "BOROUGH": 1 }, "geometry": { "type": "Point", "coordinates": [ -73.952318, 40.821362 ] } },